address,price,description,bedrooms,bathrooms,latitude,longitude,postcode,property_id
"Merchant Square, Paddington",9966,"A stunning interior designed apartment with waterside views, set within the heart of the Paddington Basin. This modern fourteenth floor, comprises a striking modern open plan kitchen with breakfast bar, four spacious bedrooms, three luxurious bathrooms and ample storage space. The balcony which s...",4,3,51.5189256,-0.1730681,W2,c03d82e0169b9646f9628c766a820a96
"Grove Avenue, Sutton",1675,"**AVAILABLE APRIL**Leaders are pleased to offer to the market this TWO Bedroom GROUND FLOOR MAISONETTE in a GATED PRIVATE ROAD situated between SOUTH SUTTON and CHEAM VILLAGE within walking distance to both Sutton Town Centre, Cheam Village, Transport and Stations. The property comprises of a Spa...",2,1,51.359806,-0.2012795,SM1 2DA,0eaca9c01a72e47b55656d34229fbbf1
"Wilberforce Road, Finsbury Park",2500,"This rather beautiful first floor maisonette with private garden holds all the charm of an inner North London retreat, delightfully arranged over three levels and lending an abundance of space. Across the first level of this charming apartment lies a spacious landing area and nicely si...",2,1,51.5641695,-0.1009081,N4 2SN,0e91ce654b6fd59d84c47e7c66fcb6ad
"Strathmore Court, Park Road",8790,Spacious six bedroom apartment set over 2553 sq. ft situated in one of the most sought after locations offering fabulous views over Regents Park. The building is located directly opposite one of the entrances to Regents Park and provides an array of sporting facilities including the largest outdo...,6,2,51.529622,-0.167885,NW8,6afcfb6a633839bcb514e31960abbe15
Graveney Road London,2650,"A spacious three double bedroom house offering a double aspect reception/dining room, fully fitted kitchen, conservatory leading onto the private garden, three piece bathroom and W/C.",3,1,51.4297874,-0.170103,SW17,45112861947e9869c0cff0d2b041d13b
"Moluccas Point, 24 Canal Approach, London",2200,"Key features Brand New DevelopmentFully FurnishedIntegrated Smeg Appliances In The KitchenOpen Plan LoungeBalconyLift AccessEnsuite In Master BedroomAmple Storage SpaceAvailable NowGreenwich/Deptford Description This stunning, brand new two-bedroom apartment offers the perfect blen...",2,0,51.5072178,-0.1275862,SE8,e51abaded102fdf9a3a8a1e610e4e50a
"Strathmore Court, Park Road, St Johns Wood",10500,A newly refurbished four bedroom apartment located in a prestigious mansion building offering fabulous views over Regents Park. The apartment boasts a master bedroom with an en suite dressing area and bathroom suite along with a 16ft fitted kitchen and a double volume reception room. The apartm...,4,3,51.529622,-0.167885,NW8,7d5a7c57203f5ded5cbad0552d7910e5
Oval,4000,FAMILIES ONLY - Beautiful four bedroom family townhouse in the heart of Oval.,4,3,51.4676639,-0.1113757,SW9,5b857c074f62efdd07e20c54af1187cb
Fountain Road London,2650,"A spacious three double bedroom house is close to transport and amenities.This property benefits from a modern kitchen and bathroom suite, a separate living room and a private garden.",3,1,51.4283695,-0.1764467,SW17,f2f6aa30044d2d2ef8e19a4d1301c12e
"Hill Street, Mayfair",3727,"Bright and spacious 1 bedroom third floor apartment located on one of Mayfair’s most prestigious roads neighbouring the famous Berkeley Square. The apartment is set over 533sq ft. and offers a large double bedroom, modern fitted bathroom, spacious reception room with front facin...",1,1,51.5086937,-0.1484713,W1J,404c392b174073c3e900f6c849e8f5b2
"Penthouse, Strathmore Court, Park Road",10030,"A superb sixth-floor penthouse apartment located in a prestigious mansion block, offering fabulous views over Regent's Park.The penthouse spans 2,114 square feet and features a large dual-aspect reception/dining room with a south-facing private balcony that provides magnificent views of Regent's ...",4,4,51.5297257,-0.1678398,NW8,5566cfa0f58663c6ac134564efa2cd79
"Streatleigh Court, Streatham High Road, London",3500,"SHORT LET. A fantastic three double bedroom apartment with wooden floors spanning nearly 1000 sq ft, situated moments from Streatham Hill station and the amenities of Streatham High road",3,1,51.4376149,-0.1266561,SW16,5fd483ac41694d22294f67522ae0de9c
"Strathmore Court, Park Road, St Johns Wood",6990,"***Pet Friendly*** Spacious three bedroom apartment located in a prestigious mansion block moments from Regents Park. This third floor apartment is set over 1791 sq. ft. and benefits from ample storage space and comprises a reception room, fitted kitchen, utility room, three double bedrooms and ...",3,2,51.529622,-0.167885,NW8,9a4ad9b24c0b50be11a74a62da7205b5
"Upper Street, London",2150,"Spacious, bright and centrally located apartment with views over Islington Green.",1,1,51.5395572,-0.1024559,N1,7b4e3a5416301627d2896d9d16a56f34
"John Harrison Way, North Greenwich",1700,"A stylish, one bedroom, fourth floor apartment with a private balcony, spectacular riverside views, beautiful communal grounds and secure basement parking. All within easy walking distance of green parks, tube and ferry stations and The O2. A fifteen minute stroll brings you to North Gr...",1,1,51.4948323,0.0122541,SE10 0BL,52bed3c32aa0225ffb113aa0f8d583f8
"Southwark Bridge Road, London",2650,"Positioned on the 5th floor, the top floor, facing west and with a balcony and a view of the London Eye. Fully fitted kitchen, 2 bedroom 2 bathroom flat. With a lift and a video entry phone. Plenty of natural light. with floor-to-ceiling windows and wooden floors. In Southwark, near to Borough Marke",2,2,51.5028284,-0.0964968,SE1,29c2ba9dba1431ba1205e93342485f5e
"Jacquard Apartments, Wandsworth Exchange",3800,"Metra Living are proud to present a modern, three bedroom apartment within the desirable Wandsworth Exchange development. This three bedroom, two bathroom apartment is situated on the 24th Floor with panoramic views across London. This property is furnished and it is available from Mid Apri...",3,2,51.4559791,-0.1917484,SW18,68e1e6935d41ad280817c846e2e8a740
"Montreal House, Surrey Quays Road",2167,"A bright and spacious one bedroom apartment located in Montreal House opposite Canada Water Underground Station. Comprising a large balcony, 561sq.ft of living space, double bedroom with wardrobe storage and luxury bathroom. The apartment further benefits from a 24hr concierge and residents’ gym....",1,1,51.49851719999999,-0.0489656,SE16,8266cce174b3c27890f9b783fa166558
"Baileys House, Nine Elms Lane",2695,"Metra Living are proud to present this superb development situated on one of London's most historic streets and is conveniently surrounded by local supermarkets, bars and restaurants. The excellent transport links nearby will get you into the city in under 30 minutes.This stunning two bedroom apa...",2,2,51.4807859,-0.1328893,SW11,8dfd57e537da4780dcaad5e5fab73bc5
Park Road,4300,"We are pleased to offer this 916 sq ft, second-floor, two-bedroom, one-bathroom apartment set within a ported building opposite Regents Park. This apartment is ideally suited to young professionals or students due to its proximity to the West End, as well as a number of top colleges and universit...",2,1,51.5268153,-0.1634943,NW8,788a76d5f0d30afd84fd51bf78a8563a
"Artisi,181 King St, Hammersmith",3600,"Regent are excited to offer this brand new two-bedroom apartment in the heart of the modern Artisi development, W6. The property comprises two double bedrooms with one en-suite to the master, an open concept living area with a large, fully fitted kitchen leading onto the ba...",2,2,51.4926027,-0.2331046,W6,87137d35668f87ce1c03be42960f1f44
"Duke Street, London",25560,"Discover luxury living in this stunning three-bedroom Mayfair apartment, thoughtfully renovated while preserving its period charm. Soaring ceilings, elegant bay windows, ornate cornicing, and original fireplaces blend seamlessly with modern upgrades throughout the 2,400 sq. ft. space. The heart ...",3,3,51.5143461,-0.151418,W1U 3EA,e2d8d1b983f3ef5486ea8bb3d1f77ae8
"Barry Road, East Dulwich, London",2100,"A fantastic Two double bedroom flat with additional small study room in a converted Victorian House in East Dulwich, SE22.
Available to rent from mid April 2025.",2,1,51.4546845,-0.0692055,SE22,828c0eea7735b0d975d3b8665c1c55ec
Ashmore Road,2500,"Bright and airy apartment located on the top floor of this well kept building is located in the heart of Maida Vale and comprises of two double bedrooms, one with an en-suite shower room, bathroom, an open plan living room with a fully fitted kitchen. Ashmore Road is found moments from the excell...",2,2,51.5289122,-0.2025082,W9,c42ac65b5afd4f537d0e558a3f1d35fb
"Queen's Gate Place, London",3467,"A Bright & spacious one bedroom flat on the ground floor of a period building moments from Gloucester Road underground station and a short walk to Kensington Gardens and High Street Kensington. Comprising Large Reception room with high ceilings, and mezzanine, Bedroom ensuite bathroom, separate W...",1,1,51.4969605,-0.1803895,SW7 5PE,d19444362092585015e997daa706b033
"Coxwell Boulevard, London",2400,"This beautifully presented two-bedroom, second-floor apartment is set within a modern, purpose-built block in the highly desirable Barratt Homes development, located on the borders of Mill Hill and Colindale. Ideally positioned, the property is approximately one mile from both Mill Hill Broad...",2,2,51.6039783,-0.2421234,NW9 4AB,5c63bc66136f382e758f14661d8416ce
"Harrowdene Gardens, Teddington",1600,"Presented in excellent condition throughout, this one bedroom property boasts views across Bushy Park from the living room. The flat further benefits from a garage and easy access to Teddington Station.",1,1,51.4203312,-0.3253854,TW11 0DH,e0c1c85879f6deb4b3bf4fe26d2b99a7
"Ossel Court, Greenwich, Greenwich",2650,"A well-presented two-bedroom furnished apartment featuring spectacular direct river views and benefits from 24hrs Concierge, Gym, floor to ceiling windows with open plan living. The property offers a fully fitted kitchen with integrated appliances, a private balcony and two bathrooms one being a ...",2,2,51.4906867,0.004019,SE10,1aee44727814ba52ecbebae1a2c5ec98
"Fairfield Drive, Wandsworth",2600,Well proportioned three bedroom ground floor flat for sharers/families close to Wandsworth Town and with great connection/transport links.,3,1,51.4577795,-0.1893971,SW18,2e7e6920a0bba18b5e6debd246f2bc2b
Flat 10 16 - 18 Warwick Road,1495,"base rent: £1495, deposit: £1725, number of bedrooms: 0, size: 222 sq ft, apartment type: lower ground, , heating type: central, stove: induction, open plan kitchen, washer dryer, washing machine, number of bathrooms: 1, refurbished, wooden flooring, EPC…",0,1,-31.8346332,115.7607093,B11,528032675af90525ed63754259baadcf
Hawksbury Heights - P2043S78,3640,"The Property - P2043S78 We are pleased to present this stunning brand new fully furnished two bedroom, two bathroom apartment located on the second floor in the Park and Sayer development of Elephant & Castle. Available September 2025 Ideally located in Zone 1 Park & Sayer is at the centre of...",2,0,51.492929,-0.0967875,SE17 1JX,33f3d76b8c499fefd746a1dfcd2d3d11
"Victoria Road, London",1350,"The fully fitted modern kitchen and contemporary bathroom add to the appeal, providing both style and functionality. With a well-maintained interior, this home is move-in ready and designed for comfortable living.",1,1,51.4998724,-0.1858819,W8 5AE,7e926389ee137a2772eefa38beaff2de
"Eagle Point, City Road, London",2250,Studio apartment furnished to an exceptional standard in Eagle Point.,0,1,51.52815709999999,-0.0895212,EC1V,5fed30ac5633d8d6f688a7373dc47b1c
"Waverley Road, London",1250,"Offered available from 1st May 2025, this small one bedroomed ground floor unfurnished flat is ideally located for easy access to transport links by road, bus and train. Enfield Town with all it's amenities is within easy walking distance.",1,0,51.6040912,-0.0588751,EN2,eb60e0a9360fb44e1116c005c0e5b8f1
"Mazenod Avenue, West Hampstead",1842,"This bright and modern two bedroomed (1 x DOUBLE, 1 x SINGLE ) located on FIRST floor within this great residential locale. This fine red brick building was modernised throughout with 5 good flats. This fine flat comprises of:- Entrance hallway with storage/utility cupboard, bright open p...",2,1,51.5412658,-0.1942197,NW6,c21739a6352b2a11d7fbe637aff3bf72
"Windmill Lane, London",2250,"Property Reference Number: 100984. Nestled on the second floor of a modern complex in the heart of East London, this elegant apartment on Windmill Lane offers an exceptional living experience. Boasting two spacious bedrooms and two contemporary bathrooms, it's designed for comfort and style. The ...",2,2,51.545584,0.0021171,E15,7f256b34b2305e0c01d2df39c6509c58
"St Edmunds Terrace, St Johns Wood",13000,"An exceptional 4,000 sq ft residence located on one of St John’s Wood’s most exclusive roads, featuring its very own private swimming pool. Recently refurbished throughout, the apartment offers five generous double bedrooms, two expansive reception rooms, an impressive separate eat...",5,4,51.5364179,-0.1632798,NW8,9fc4b7965064b95034ca66e55bec5bbc
"Richmond Way, Shepherd`s Bush",1907,A brilliant two bedroom apartment situated on the lower ground floor of this smart Victorian Mansion block just a short walk from Shepherds Bush Underground Station (central line). Please email all enquiries.,2,1,51.5025862,-0.2174882,W12,cdae9e0af5a752d1b3afa5e6ab66bf00
"Richmond Way, Shepherds Bush",2102,A brand newly refurbished two double bedroom apartment situated on the second floor in this Victorian Mansion block just a short walk from Shepherds Bush Underground Station (central line). The furniture will be new and from Ikea. Please email all enquiries.,2,1,51.5025862,-0.2174882,W12,d37746d1b16afc3ead9def5d167d0372
"Rathbone Market, Barking Road, London",1772,"*ADVERTISED RENT INCLUDES £1,772 ANNUAL DISCOUNT - EXCLUSIVE MARCH OFFER* Short Term Lets Available - 6 Month or 9 Month Options*. Discover the allure of our bright 1-bedroom apartment, complete with an in-built wardrobe and complimentary Wi-Fi.",1,1,51.5162269,0.0102624,E16,2ee152c43a46581d0855a50f13ebb91d
"Mount View Road, London",1075,"A well presented studio flat located in a prime location within walking distance of the transport links of Crouch End, local restaurants and shopping facilities. The property benefits from a separate bathroom. Available Now !",0,0,51.5762413,-0.11434,N4,314007e1c673eef2302d20936ca144d0
"Belsize Avenue, London",3500,"A beautifully presented two bedroom apartment over the fourth floor of this well maintained purpose built block with lift, in the heart of Belsize Park. This generously proportioned property provides in excess of 900 sq ft comprising of a spacious entrance hall which leads to a bright 17' recept...",2,1,51.5499538,-0.1687063,NW3,26e583c118b2fa1acab6294779a45c50
"L-001015, Battersea Power Station, Circus Road East",6999,A highly unique and rarely available two bedroom duplex apartment of 1259 sq ft in Battersea Power Station.,2,2,51.48202029999999,-0.1444907,SW11 8DD,f7d45a000e4fafab1231c0a30f06cfd7
"Park View Mews, London",4500,"Stunning four bedroom, two bathroom town house measuring over 1,200 square foot in private gated development",4,2,51.457509,0.0052043,SE13,213516febef0941bbd7bc73a15a4d70c
Clapham Common North Side London,2400,"Elegant and spacious studio apartment with breathtaking views, set in a prestigious Clapham Common location.",0,1,51.4612592,-0.1519193,SW4,3aaf437922b5fb1078485c81fc80a11e
"Victoria Road, London",1650,"The property features two well-proportioned bedrooms with plenty of natural light, a bright open-plan living area, and a fully equipped contemporary kitchen. The modern bathroom adds to the overall appeal, ensuring a comfortable and stylish living experience. With a well-maintained interior.",2,1,51.4998724,-0.1858819,W8 5AE,ff11875ea012e7a8a1a2005439e64adb
Garett Mansions -,5700,"Luxurious Two-Bedroom, Two-Bathroom Apartment in the West End Gate Development Houseen Property are delighted to present this elegant two-bedroom, two-bathroom apartment located in the prestigious West End Gate development. Situated just moments from Paddington/Bayswater and only a short walk fr...",2,0,51.521304,-0.1722519,P2015,024cf79409a639d28a7d84c362a997cc
"Crossharbour Plaza, London",1750,Available 19th March | Studio Apartment | Fully Furnished | High Floor | South-Facing Private Balcony | 24hr Concierge | Resident's Cinema | Resident's Gym & Swimming Facilities | Short Walk from Canary Wharf and Crossharbour DLR Station,0,1,51.4974984,-0.0151176,E14,f10274444286140fe9425998965d2aba
"Agnes George Walk, London",1600,"Spacious one bedroom apartment in Waterside Gardens has just become available for rent, located in Royal Docks, E16.",1,1,51.502653,0.0353284,E16,51411a71faa95b5f58b82aff4c39402c
Victoria Rise London,3000,"A lovely three double bedroom, two bathroom split level purpose built flat offering a large private garden and an additional study room. Situated in the heart of Clapham Old Town.",3,2,51.4639405,-0.1481504,SW4,776b60557208f3b22befc0676477e1ab
"Everington Street, London",3950,"LDB are proud to present this fantastic four bedroom house to the market. The property features four double bedrooms, a separate living room, two bathrooms, eat-in kitchen and private rear garden. Located just minutes from shops, bars and cafes. This house is perfect for professional sharers ...",4,2,51.4843946,-0.2167468,W6 8DX,9a4447d9fab2c6344309f4b79d6456b5
"Rotherhithe Street, Rotherhithe, London",2400,"Offers over £2400 Stunning Two-Bedroom Penthouse with Breathtaking Views & Private Roof Terrace Welcome to Stanton House, SE16 – an exceptional two-bedroom penthouse apartment offering panoramic views of the River Thames and Canary Wharf. This beautifully redecorat...",2,2,51.5043933,-0.0457696,SE16,b4febc5a7746ffe1e250bd0ab960303e
"Trinity Close, London",1825,"CMC Estates are pleased to offer for rent this beautiful two bedroom third floor flat located within a minutes walk from Leytonstone Train Station and just a few minutes away from the bustling high street. It has two bedrooms, a modern open plan kitchen and reception room with access to a balcony",2,1,51.5634977,0.0080805,E11,fc79ec4fb67793c405ac76a47fc56fcd
Folgate Street London,3500,"*SHORT LET - BILLS INCLUDED*
A recently refurbished two bedroom apartment, set in this popular development, located within moments walk of Spitalfields Market and Liverpool Street Station. The apartment benefits from use of a small residents gym and 24 hour concierge.",2,1,51.5208814,-0.076898,E1,2ef222d612273ce9a85016454e5d9f86
"Lea Bridge Road, London",1200,Property Now Available To Rent On Lea Bridge Road.,0,1,51.5703214,-0.0252862,E10,39c8b56befc8676a04c6fe5ccba75a31
Purbeck Gardens London,2700,"We are delighted to offer this contemporary, part-furnished 3-bedroom apartment, ideally located next to Lower Sydenham Station. Situated on the 4th floor of a well-maintained development, this property offers the perfect balance of convenience and modern living.",3,2,51.423903,-0.0319646,SE26,0ee4ff8504b69b0fe928f0afe42e8bad
"St. Pauls Terrace, London",2000,Second floor 2 bed flat in private block 5 minutes' walk from Kennington and Oval tube stations and Park. Available early April.,2,1,51.485455,-0.1028439,SE17,3252a9ebb1eb76a77fd2b7845e9ad06a
"Park Road, Colliers Wood",1600,"Two double bedroom ground floor flat situated in a modern development and located within walking distance of Colliers Wood tube and High Street. Good condition throughout, unfurnished and available from 7th April 2025. EPC Rating: 'C' Merton Council Tax Band 'C' £1579.08 per annum.",2,1,51.4202513,-0.1749588,SW19 2HS,a5d61405e7997adc8b08e6ba152a46f5
High Street North,2400,"Portico are delighted to present this immaculate 4 bedroom flat, now available to let. This property is ideally suited for families, offering this newly decorated flat to a great standard.",4,1,51.5445349,0.0496642,E12,074c3c19605b2211dcb2b30a8cb6f5e2
"Silvertown Way, London",2748,"Located in Falconbrook Gardens, part of the Brunel Street Works development, this top-floor two-bedroom, two-bathroom apartment offers over 1,100 sq ft / 98 sq m of well-designed space. It's the closest privately owned building to Canning Town Station (Jubilee & DLR), just a 2-minute wal...",2,2,51.5090286,0.0134757,E16,9c593268ae163a910622cf8c1a2dd020
Felstead Street,1800,"Welcome to this truly immaculate apartment that is currently available to let. This property is in great condition, and it has been meticulously maintained to ensure it is the perfect home for you.",1,1,51.5443588,-0.0269751,E9,7aaf6a50c674158b1d96fcb95bea7035
"Villiers Street, EPCC",2600,"A large one bedroom apartment in this portered development between Theatre land and the River Thames! Finished to a high standard with wood floors, large kitchen and air conditioning.",1,1,51.5080806,-0.1237903,WC2N,ee6fe09deebe6ac75692121eb359f9c3
"Goldhurst Terrace, South Hampstead, London",2275,Available now. 2 double bedroom ground floor flat on Goldhurst Terrace with access to rear communal rear garden. Viewing via sole agent Rose & Co Estates,2,1,51.5455627,-0.1798697,NW6 3HX,f1f6c45300f0573c7a7fa2219f6166bc
Sterling Street,10833,"SHORT LET - ALL BILLS INCLUDED. Experience refined living in this elegant 4-bedroom residence, where each room is thoughtfully designed in a light, creamy hue, creating an atmosphere of spacious tranquillity. Among the bathrooms, one stands out with its sophisticated design, featuring luxurious m...",4,3,51.4999492,-0.1669548,SW7,2d13e1fc02d2a93c55cdb66036ce7a10
"Jacquard Point, Silk District",2400,"Luxury, high floor apartment situated in a highly sought after development in Whitechapel moments from Queen Mary University and within easy reach of Brick Lane, The City and Canary Wharf.",1,1,51.51864190000001,-0.05730489999999999,E1,67c2e88ef792dc85a9299195e5c5341c
"Westferry Road, London",2350,"This spacious apartment boasts two bedrooms, one of which is en-suite, and an additional modern family bathroom.",2,1,51.4984924,-0.0259151,E14,53f93dcc2696fbf515cef808c51174a1
"Stone Court, Stratford",1950,Portico are pleased to offer to let this spacious two bed modern apartment with two bathrooms situated in a private gated community known as Flint Close.,2,2,51.541295,0.0058709,E15,6e694ece0dcf1b4722cb65a8bc4e4e48
"Winterfold Close, LONDON",2350,"**Zero Deposit Available**
We are pleased to offer this top floor flat within close proximity to Southfields and Wimbledon.",3,1,51.4400938,-0.214949,SW19 6LF,eeb5d041cb97304986d4361673f745c4
Brixton Hill London,2200,A two-double bedroom split-level apartment located on Brixton Hill,2,2,51.4533061,-0.1205798,SW2,22990e24c5b371c11e37e920338b8441
"Cranmer Avenue, London",2100,"**NO DEPOSIT OPTION AVAILABLE FOR TENANTS, GREATER PROTECTION FOR LANDLORDS** Charming 2-bedroom cottage with a beautiful garden in a peaceful village setting. This cosy home boasts a spacious living area, modern kitchen, and a lovely outdoor space perfect for relaxing or entertaining. Convenient...",2,1,51.5001337,-0.3174895,W13,581e91e2de86ba2f6a58ae274493f095
"Charles Clowes Walk, Nine Elms",4333,"Absolute Living are delighted to offer the lettings market this stunning modern and luxurious fourth floor two bed, two bath apartment (770 Sq Ft, 71.53 Sq m) with a residents gym, media room and board room located in Thornes House forming part of the residence collection in Nine Elms on London's...",2,2,51.4813159,-0.1325874,SW11 7AD,01e9d6421dbf96ba1332cb57ca028977
"Penthouse, Merchant Square, Paddington",9960,"This four double bedroom apartment has spacious living and entertaining space with a beautiful reception room and a large balcony, offering breath-taking views over London. It also comprises of a striking modern open plan kitchen with breakfast bar, four spacious bedrooms, three luxurious bathroo...",4,3,51.5189256,-0.1730681,W2,cb5b3594a81f56448b7e16b44bdf95f8
"Ebb Court, 1 Albert Basin Way",2296,Modern two bedroom apartment in the Royal Albert Wharf development in E16.,2,2,51.5068967,0.07376629999999999,E16,abdb19f759657f029299822b85060643
"Elgin Avenue, Maida Vale",2097,"*VIDEO VIEWING AVAILABLE* *AVAILABLE IMMEDIATELY* With some enviable period features including fireplaces and high ceilings, this spacious one bedroom raised ground floor flat has both a large reception and bedroom and a kitchen leading to a small private terrace.",1,1,51.5282153,-0.1898103,W9 3PR,0bb1ae444ef660932c2f395f14678c2b
"Castellain Road, Maida Vale",3900,"This large three bedroom flat consists of wood flooring, separate kitchen, private balcony and two bathrooms. The property benefits from natural light and modern features.",3,2,51.5262988,-0.1878108,W9 1EY,6f4e93d5e90ec31fb3b8fb4910425bb1
"Sutherland Avenue,  London",1700,"**BRIGHT & MODERN** Fully furnished one bedroom flat in beautiful period property in Maida Vale, 5 mins to Warwick Avenue tube. Modern kitchen & bathroom with over-bath shower.",1,1,51.5253629,-0.1881437,W9,470332fa9e8b6ce0acd9ca5be59bb997
"South Ealing Road, Ealing",1200,"Ideal for a single person this one bedroom flat is situated in an excellent location just a stones throw from South Ealing tube station as well as the shops, restaurants and cafes of South Ealing Road. The property itself has an open kitchen and living area, a modern bathroom and double bedroom w...",1,1,51.4993791,-0.3061432,W5 4QT,bef6e5be87308b375f21666bf01b5537
"Fisher Close, London",1750,"A large contemporary ground floor one bedroom apartment, featuring a high level of specification, including the lovely designer kitchens and stylish bathrooms and is located is within 10 Minutes walk of Canada Water Station (Jubilee Line) and Rotherhithe Overland Station.",1,1,51.505114,-0.0423469,SE16,f10b3e4b2125c21082ecfe01521baaa0
"Lordship Lane, East Dulwich, London",1800,"Fantastic, recently refurbished first floor Victorian conversion on ever popular Lordship Lane.",1,1,51.4530646,-0.0772915,SE22,45a9c9d278b3ee5cf3b649bad69d31ad
"Belsize Road, South Hampstead",3500,Spacious and well-proportioned apartment - 3 double bedrooms with fitted wardrobes - 2 bathrooms (1 en-suite shower room) - Additional guest cloakroom - Wood floors throughout - Bright and airy reception room - Fitted kitchen with American-style fridge/freezer - Privat...,3,2,51.5405156,-0.1843922,NW6,cc722b3217a37d6fa6593e65b7e29367
"Lankaster Gardens, East Finchley, London",1900,"We are delighted to present to the market this fantastic 2 bedroom maisonette which has been newly refurbished throughout. Set in the lovely East Finchley area, with access to many local green areas and convenient access into Central London. This property also boasts access to a communal garden...",2,1,51.5999521,-0.1717909,N2,6915f99fdaf14039fd7afda074819971
"Fulham Road, Fulham",2200,"Refurbished third floor two bedroom mansion flat located within walking distance of Fulham Palace and Gardens, the River and transport links at Putney Bridge Station for the District Line.",2,1,51.480079,-0.194504,SW6,c90f59aa72d6659cdaf39473b8c7bf91
"Circus Road East, Vauxhall",6998,"This beautifully presented two-bedroom maisonette in Battersea features a spacious reception room, a high specification kitchen, three stylish modern bathrooms and private underground parking.",2,3,51.481656,-0.1429994,SW11 8DQ,8bf2a87f7a86232ddad04837da43bc1b
"Haines House, 10 Charles Clowes Walk, London",3000,"Available in May and offered fully furnished, this stunning high-floor two-bedroom luxury apartment is situated in the sought-after development, The Residence at Haines House, SW11. This exceptional apartment boasts an open-plan living, kitchen, and dining area, complemented by two spa...",2,1,51.481281,-0.1326213,SW11,823ed7f459e6f7bb87cc7541b924ee63
"Warrington Road, Richmond",1750,Perfect central Richmond location this one bedroom unfurnished apartment. tucked away in Warrington road. Good proportions with outside space. Less than a quarter of a mile from the train station. The bus station is only 100 yards away. Fully Refurbished and available immediately.,1,1,51.4592683,-0.3030575,TW10,459d21f47ed6081b1ef7de2b2044967d
"Canal View - Merchant Square, Paddington",7345,"A well appointed, south facing, three double bedroom apartment situated on the Seventh floor of this popular development within the Paddington Basin, overlooking the Grand Union Canal. The apartment has an open plan kitchen/ reception room with wooden floors, three double bedrooms and two bathroo...",3,2,51.5189256,-0.1730681,W2,66e87c444178ec4524df05acb52089c8
"Woodfield Road, Little Venice",2400,"Well presented spacious ground floor flat, set within a purpose built block and within close proximity to Westbourne Park Station (Circle and Hammersmith and City Line).",1,1,51.5229155,-0.2001625,W9,f0b2b1ed2f16837ce9c2c6e02f0deba7
"Mount View Road, Crouch End, London4JA",1100,"SPACIOUS STUDIO WHITE GOODS INCLUDED 3-PIECE BATHROOM SUITE CLOSE TO TRANSPORT LINKS This well-presented, spacious studio flat is ideally situated in a prime location, just a short walk from Crouch End's excellent transport links, popular restaurants, and shopping facilities. The proper...",0,1,51.5754744,-0.11667,N4,82c1da341ccc3cdd9ee426b52cdd41cb
"Central Street, London",3200,"A outstanding two double bedroom property located within the prestigious Worcester Point development. This delightful apartment has been finished to an impeccable standard and comprises; a bright reception room, high specification fitted open plan kitchen with integrated appliances, fully tiled b...",2,2,51.5270854,-0.096797,EC1V,e8089c9abc83ade6aaf5cadcd02a7c0a
"Hill Street, Mayfair",3207,"A bright and spacious, modern 1 bedroom apartment situated on the 6th floor and located on one of Mayfair's most prestigious roads is now available to rent. The apartment is set over 440 sq ft. and offers a large double bedroom, modern fitted bathroom, spacious reception room with fron...",1,1,51.5086937,-0.1484713,W1J,e0b7d32da23b60edd180b3ce766a55b3
Fairholme Road,3500,"Stunning, newly refurbished two bedroom flat for short let available on Fairholme Road. Open-plan, private balcony, stunning reception room and two bedrooms!",2,1,51.4882219,-0.2079667,W14,f5883d739c55b160bfd87f33b852b5b0
"Chartfield Avenue, London",2595,Modern 2 Bedroom. 2 Bathroom. Large Open Plan Reception Room. Fully Fitted Kitchen. Great Storage. Residents Gym. 24 Hour Concierge. Double Glazing. Central Putney Location.,2,2,51.4574983,-0.2261501,SW15,0f84a2116eb4a8969964355193eca8aa
"Holland Park, London",8996,"Elegant & Luxurious 3-Bedroom Apartment in Holland Park, W11 – Grade II-Listed Villa. Nestled on the ground floor of a beautifully redeveloped Grade II-listed villa, this exquisite apartment is bathed in natural light, accentuated by soaring historical ceilings. The residence benefits ...",3,3,51.5121945,-0.2086389,W11,200e67a2adbd4f1f9190d6d4a1aed693
"Three Colts Lane, Tower Hamlets, London",3150,"LONG LET. Set on the 2nd floor, this 2 bedroom flat boasts stylish accommodation including a large open-plan reception room, a modern kitchen and 2 lovely double bedrooms.",2,2,51.5244683,-0.0574809,E2,770658db431dfe6ff3ad95622bcd66d9
"Tulse Hill, Brixton",1450,A one bedroom flat situated in this bright period mansion block in Brixton. Offering a large reception room and separate kitchen. Ideal for a couple or single professional.,1,1,51.4496382,-0.1179015,SW2 2TH,c93a10d6716cc90266ca0fcc44b012b6
"Three Colts Lane, Bethnal Green, London",2750,"LONG LET. Set on the 3rd floor, this 1 bedroom flat boasts stylish accommodation including a large open-plan reception room, a modern kitchen and a lovely double bedroom with fitted storage.",1,1,51.5245575,-0.0561695,E2,a7c1dc6d2c131af48fdc6e68e06ac50e
"Three Colts Lane, Bethnal Green, London",4250,"LONG LET. This 3 bedroom apartment boasts stylish accommodation including a large open-plan reception room, a modern kitchen with space to dine and 3 lovely double bedrooms.",3,2,51.5245575,-0.0561695,E2,3d2e3e1cb6582f84cb288393868bf44b
"Clarendon Flats, Balderton Street",2578,"Utilities included - A well located, compact, one bedroom apartment situated within easy reach of Bond Street station.",1,1,51.51313829999999,-0.1522222,W1K,4b3e94a3d112adc8060ad885d5fdf47d
Green Lanes Palmers Green,1500,This fabulous one bedroom flat is located on the second floor of a newly built development in Palmers Green finished to a high specification.,1,1,51.621756,-0.1055953,N13,28761ee50b0eb96f30c61b5cc341d62f
"Central Road, MORDEN",2100,"**Zero Deposit Available**
Located within extremely close proximity of Morden town centre with its variety of local shops and amenities, as well as the ever popular Morden Underground and Morden South train stations providing commuters with convenient and speedy access in to Central London.",3,1,51.394663,-0.1946249,SM4 5PQ,0b44ecf6a47d526b82eb0194ace21951
"Greatorex Street, Brick Lane, London",2750,"ZERO DEPOSIT AVAILABLE. LONG LET. Peacefully set within a secure development with communal gardens, this spacious 2 bedroom third floor flat enjoys pleasant views, modern interior and convenient location for access to the City and Canary Wharf.",2,2,51.5178304,-0.0670581,E1,f329a6292a881bc29c8387009a1f2fbb
"Greatorex Street, Brick Lane, London",4000,"SHORT LET. Peacefully set within a secure development with communal gardens, this spacious 2 bedroom third floor flat enjoys pleasant views, modern interior and convenient location for access to the City and Canary Wharf.",2,2,51.5178304,-0.0670581,E1,6a09984766b7ef99218a3fb8f4f245f6
"Three Colts Lane, Bethnal Green, London",3600,"LONG LET. Set on the 7th floor, this 2 bedroom flat boasts stylish accommodation including a large open-plan reception room, a modern kitchen and 2 lovely double bedrooms with fitted storage.",2,2,51.5245575,-0.0561695,E2,a72f109862933564755025bab304e042
"Huntington House, Prince of Wales Drive",5417,"A wonderful three bedroom apartment in Huntington House set within the highly anticipated Prince of Wales Drive development. This exclusive apartment features three double bedrooms, a luxurious bathroom suite, open plan kitchen/ reception room with dual aspect windows and a private balcony. Each ...",3,2,51.47811420000001,-0.1469996,SW11 4EJ,95fabfeb1689aac6d0fd42e4c01be229
"Merchant Square, East West Quay, Paddington",7190,"A large THREE bedroom apartment set on the FOURTH floor of this prestigious building set off Paddington Basin featuring a concierge, lift service, CCTV and secure underground parking. A stunning interior designed apartment with water views, comprising of a beautiful reception room with superb vi...",3,2,51.5189256,-0.1730681,W2,494de60b907b7bf72839d105b10c8723
"Lannoy Road, London",1900,"Two double bedroom semi detached house situated in an extremely convenient location, a very short walk to New Eltham train station and High Street with Wybourne Primary, Dulverton Primary and St Olaves Prep School all very close by.The property will be offered to the new occupier with a...",2,1,51.4394827,0.0727142,SE9,bb07efe4755ee293ff4166e2f7c4f031
"The Green, Chingford Green, London",2600,"** REGISTER FOR VIEWING DAY 11.00AM TO 2.00PM SATURDAY THE 29TH MARCH ** Welcome to this Superbly appointed and spacious character family home this attractive semi-detached house is situated in Chingford Green offering four good sized bedrooms, this property is perfect for families seeking comfor...",4,2,51.631089,0.0002165,E4 7EX,20d0519298c9c68c7877df1eb78152cd
"Court Close, St John's Wood Park",12783,A beautifully presented 4 bedroom contemporary townhouse (approx 1895 sq ft / 176 sq m) in a private gated residential complex. The house has been extended to provide a lovely family home over three floors with open-living areas leading onto a landscaped south facing private garden. Court Close...,4,4,51.5409018,-0.1743372,NW8 6NN,e4a2f86e296571b4756b72c572f49244
"Merchant Square, Paddington",7064,"A stunning interior-designed three bedroom apartment with stunning water views, set within the heart of the Paddington Basin. The apartments comprises a beautiful reception room with superb views, a modern fully fitted open plan kitchen, three bedrooms, two bathrooms and ample storage space. The...",3,2,51.5189256,-0.1730681,W2,4e79e8be109904006d23d59b8df426ab
"Chalkwell Park Avenue, London",1800,"Newly Refurbished Ground Floor Maisonette With Two Double Bedrooms, Modern Kitchen, Lounge, Bathroom, Driveway & Rear Garden. Council Tax Band D.",2,0,51.6488165,-0.0782884,EN1,e49a225a053358b9b38ffa0d7b3451a8
Fernhead Road - Great Space and Very Bright,1751,"A beautifully presented one bedroom apartment on the 2nd floor of this converted Victorian house with communal garden. Offering excellent natural light, the accommodation comprises: spacious double aspect reception room with dining area, double bedroom with wardrobe, separate kitchen with breakf...",1,1,51.5287203,-0.2014234,W9 3EU,d080173b6ffe9d6a837b06ecaa599ce8
"The Terrace, Barnes, London",2200,"SHORT LET. Set in a beautiful red brick mansion with well-manicured courtyards, this superb 1 bedroom flat showcases elegant interiors. A charming reception offers a quaint fireplace and leads into a stylish yet modern kitchen.",1,1,51.4720548,-0.2535028,SW13,932c0a213efbdda3a87f69ba0adb1e19
"Perseus Court, Arniston Way",2167,"*Video Viewing Available*
A modern one bedroom apartment situated in the new Blackwall Reach developent close to Blackwall DLR and walking distance into Canary Wharf.",1,1,51.5086173,-0.0083977,E14,8e41172c6b41eff18e7cb915502efcc3
"Grove End Gardens, Grove End Road, London",3077,No summary available.,1,1,51.5330322,-0.1766523,NW8 9LT,c1c2daa6c67ca22d5b00d52e3cffbbf2
Kensington Gardens Square,29900,"Occupying the entire top seventh floor, the Penthouse is a three bedroom lateral apartment extending to approximately 2,849sqft of luxurious living space with direct lift access and two car spaces. A private rooftop terrace and two large balconies provide additional outside entertaining space.",3,4,51.5144803,-0.1898553,W2,c12abccc8690eb3211b3860615422762
"Nottingham Place, London",5200,"A large 2 bedrooms flat (1,192 sq ft/111 sq m) flat with private entrance and patio located minutes from the amenities of Marylebone and Baker Street. The property comprises a large hallway, 2 double bedrooms, 1 study/bedroom, 1 bathroom and 1 en-suite, living room.",3,2,51.5218975,-0.1531328,W1U,7d930b62865cf6678c0ab79ae92f6959
"Marsh Wall, London",2900,"BRAND NEW apartment in Aspen at Consort Place, E14. This elegant apartment is located on a high floor and offers 604sq/ft of internal space.",1,1,51.5003349,-0.0177778,E22,389f9897c6852c2eef3baf62fea7cc60
"Brixton Road, 506A Brixton Road,8EN",1500,"Harmens are proud to present a modern one bedroom flat opposite Brixton Underground station. The property comprises of a good size open plan kitchen and lounge, a double bedroom and a bathroom.",1,1,51.4617121,-0.1156997,SW9,eeee568eafdab1043c64a6cdaa6952a1
"Azure Apartments, Dragonfly Walk",3000,"Regent are excited to offer this newly built two-bedroom apartment in the heart of Azure Apartments, part of the famous Woodberry Down Park development, N4. This well-proportioned apartment comprises two double bedrooms with fitted wardrobes, a large open-plan kitchen with...",2,2,51.5728114,-0.1000159,N4,b8d3a72797c3357d1219342e75dd52fa
"Alie Street, Aldgate",2600,"Luxury studio apartment within a prestigious development in Aldgate East, close to The City and easy reach of Central London. This beautifully finished apartment comes interior designed and benefits from superb resident only amenities.",0,1,51.514471,-0.0755039,E1,911ace6cceba9a0269255e9a11482923
Battersea Park Road,1850,"2 bedroom flat located above commercial premises on Battersea Park Road, moments from Battersea Park, a short walk from Chelsea Bridge and Battersea Power Station. Comprises open plan reception room and modern kitchen with integrated appliances and large south facing windows providing lo...",2,1,51.4746761,-0.1543773,SW11 4ND,327d11cd48882ac4e890f2631173de98
Mitcham Lane,2300,"This is a spacious, split level three double bedroom flat which is fully furnished. The flat comprises of a large reception room with adjoining modern kitchen with dishwasher, three double bedrooms and bathroom. The property has been completed to a high standard throughout with zone (cont.)",3,1,51.4249292,-0.1406516,SW16 6LG,ae8e30980658c1241ff48fc63ec58b9a
"Long Lane, East Finchley, London",2400,"NO DEPOSIT OPTION AVAILABLE A newly refurbished ground floor 3 bedroom garden flat ideally located in East Finchley The bright and spacious property offers 3 double bedrooms, a modern, separate kitchen and beautifully presented bathroom. It also boasts access to its own, lar...",3,1,51.593575,-0.172848,N2,c34b750107b6e5dd04c819b58fa16ecc
"Tidworth Road, LONDON",2400,Photographs to Follow - A superbly presented three bedroom apartment in a quiet location close to Bow Road,3,1,51.5245727,-0.0229726,E3 4XH,360a22a27bd2c9361dbd50564fa0a2dc
"Cannon Hill Lane, Raynes Park, London",3600,"ZERO DEPOSIT AVAILABLE. LONG LET. A delightful 3 bedroom semi-detached house in Raynes Park, benefiting from modern décor throughout, separate dining room, private 90' garden and off-street parking.",3,2,51.4018132,-0.2167825,SW20,cd72462416ea5a89047a1daf6a3fdaf0
"Gap Road, Wimbledon, London",2492,"SHORT LET. Presented in wonderful condition, this superb 1 bedroom split-level flat is conveniently located for transport links and amenities, offering ample living space, stylish fixtures and a charming 20' garden.",1,1,51.4277891,-0.1944859,SW19,b086839de2133c3830ca1d8bcbf31253
"Gap Road, Wimbledon, London",1600,"ZERO DEPOSIT AVAILABLE. LONG LET. Presented in wonderful condition, this superb 1 bedroom split-level flat is conveniently located for transport links and amenities, offering ample living space, stylish fixtures and a charming 20' garden.",1,1,51.4277891,-0.1944859,SW19,883c8cf4e76a763edc333d567ec4450f
"Du Cane Court, Balham, London",1550,"ZERO DEPOSIT AVAILABLE. LONG LET. This charming one bedroom fifth floor flat is located in this imposing development and boasts easy access to shops, bars, restaurants and Tube/National Rail.",1,1,51.4414834,-0.1557779,SW17,6aacdd9f4741c62cfbdb8efd1e4397c4
"St. Johns Road, Isleworth, Middlesex",2195,***ONE MONTH RENT FREE***AVAILABLE MID MARCH***GREAT LOCATION***FURNISHED***NEXT TO STATION***CALL NOW TO VIEW...,3,1,51.4718739,-0.3345783,TW7,ea2a8806e69bdee4f88ef20049139242
"Flat 2 5 Chalfont Road, London",2300,"Set within the sought-after Chalfont Road Conservation Area, this impressive three-bedroom split-level apartment is located on a peaceful residential street. Meticulously converted to an exceptional standard, the property seamlessly blends period charm with modern living.",3,0,51.4015151,-0.0762156,SE25,94e019621dc04aece86e12aa829bd0e5
Offenham Road London,2600,This attractive apartment is stylishly decorated with contemporary charm throughout. Boasting a private balcony offering picturesque views over the green space and available on a short term.,2,2,51.4757823,-0.1084206,SW9,95937b33d0075a15538983dbc9184224
"Rotherhithe Street, Rotherhithe, London",2817,"SHORT LET. Offering abundant living space and modern décor throughout, this fabulous 2 bedroom flat further benefits from a good-sized garage/store room that is directly accessible from the flat.",2,2,51.5043933,-0.0457696,SE16,bd67ae1a125cea1039fee1f4c95c9207
Emerson Court,2750,"A beautiful three- bedroom flat presented in excellent condition throughout. This property comes part-furnished and comprises three bedrooms, one bathroom, a modern fitted kitchen and a large bright reception room leading on to a well-kept private patio leading onto well-kept communal gardens. Th...",3,1,51.4255297,-0.2050566,SW19,58faad9840fb63555645120ad3516d1e
"St. James's Gardens, London",2362,A wonderfully bright and airy one bedroom flat on the first floor of this period conversion with use and views of the stunning communal garden square below.,1,1,51.5080065,-0.2134538,W11,482c87597d0c6bb359410892485209ec
"Old Compton Street, Soho",1647,Available from the 17th of April on a furnished basis is this well presented second floor studio flat located on one of vibrant Soho's most iconic streets. The property is one of seven is this well kept building with it's main entrance door accessed from the street and briefly comprises an e...,0,1,51.5131583,-0.131321,W1D 5JA,e197f995296705e47dfa45400f449d38
"Hamlet Gardens, King Street, Hammersmith",4500,Get 2 weeks rent free now! FREE WIFI TILL END MAY-2025 This luxurious and timeless three bedroom apartment at Hamlet Gardens has been designed for larger families or those who need a little extra space in their next home.,3,2,51.4946512,-0.2407673,W6,990256577e6c836f7647ebd5e8fe1de7
"Granville Road, London",2250,A two bedroom and two bathroom apartment set on the first floor of this modern block. Available immediately and comes with an underground parking space.,2,2,51.5662596,-0.2022005,NW2,451c4278039e732714ff42eb1fca8f2f
TwelveTrees Park,3000,"TwelveTrees Park is ready! Forget what you think you know about new builds. This isn't just a place to live; it's a launchpad. Picture this: you, first through the door, overlooking twelve acres of brand-new, Wi-Fi-enabled parkland. Your morning coffee just got a serious upgrade. This is TwelveTr...",2,2,51.5255029,0.0009274000000000001,E16,0b5c3db4e94d500b7c95ae2c1192aa1d
"West End Gate, Hyde Park",5538,"A contemporary two bedroom apartment comprising an open-plan kitchen, two double bedrooms, and a reception room leading to a private balcony. The two double bedrooms also benefit from built-in wardrobes, and the master bedroom has a modern en-suite bathroom. Garrett Mansions is part of West...",2,2,51.5210442,-0.1718233,W2,cd6ed84acbf14c128924f440b8f33136
"Hamlet Gardens, King Street, Hammersmith",3750,FREE WIFI TILL END MAY-2025 This elegant two bedroom apartment at Hamlet Gardens is perfect for individuals or couples seeking a blend of historical charm and contemporary comfort.,2,1,51.4946512,-0.2407673,W6,d372e0a5679503222db2a059638e17f4
"Kew Bridge Court, Brentford London",2275,A large two bedroom two bathroom apartment in this popular gated development | Rent from the UK's largest residential landlord | Close to both Kew Bridge and Gunnersbury Park Station | Onsite Grainger resident services manager,2,2,51.4888454,-0.2853653,W4,e853e5e848d308465467a83c7e8ac15f
"Oxford Road, Putney, London",2195,"Bright and spacious two bedroom flat on the first floor of a beautiful house conversion on a quiet residential road in the heart of Putney.The property comprises of a large living room, separate kitchen, two double bedrooms and bathroom.This fantastic property is conveniently located just moments...",2,1,51.4616374,-0.2120607,SW15,44be1683fd5a4a37b14476d33f94194d
"The Sessile, 18 Ashley Road, London,9NW",3595,"This thoughtfully designed, three bedroom furnished apartment with a balcony is located on the 8th floor of The Sessile, a cosmopolitan residence in the centre of Tottenham Hale.",3,2,51.59084259999999,-0.0618819,N17,e926b427ceb1a5b1ff6cbdead1bd82b8
"Lyngham Court, Crouch Hill, Crouch End",1595,A beautiful refurbished one bedroom flat offered in excellent condition with modern bathroom and kitchen. Perfect location for Crouch End and Finsbury Park. Available soon.,1,1,51.5724834,-0.1191701,N4,d5cafcbdec2c2248f08a5a85e29093ff
"Prospect Ring, East Finchley, London",2400,"NO DEPOSIT OPTION AVAILABLE Martyn Gerrard is pleased to present this spacious three-bedroom apartment located on the first floor, within walking distance of East Finchley Station and the High Road.",3,1,51.5906243,-0.1678688,N2,7e1619f4165d1f61a22f8c26a0ebdd6b
"The Sessile, 18 Ashley Road, London,9NW",3745,"This thoughtfully designed, three bedroom furnished apartment with a balcony is located on the 9th floor of The Sessile, a cosmopolitan residence in the center of Tottenham Hale.",3,2,51.59084259999999,-0.0618819,N17,38e2149f40269bf195005f497df9fd41
"Sandpiper Building, 44 Newnton Close, London",3750,"Beautiful, bright and spacious 3 bedroom, 2 bathroom apartment overlooking the reservoir in Woodberry Down. The stunning apartment is presented in immaculate condition. Residents will be part of a lovely community with shops and amenities on your doorstep and easy access to transport links.",3,2,51.57324209999999,-0.0854772,N4,796c03e420a5095b1a20a789fc6fa1fc
"Hamlet Gardens, King Street, Hammersmith",4250,Get 2 weeks rent free now! FREE WIFI TILL END MAY-2025 This luxurious and timeless newly refurbished three bedroom apartment at Hamlet Gardens has been designed for larger families or those who need a little extra space in their next home.,3,2,51.4946512,-0.2407673,W6,9e68a0ea0e3188d19d5541bf9bbb4cb6
"Hamlet Gardens, King Street, Hammersmith",2850,FREE WIFI TILL END MAY-2025 This elegant one bedroom apartment at Hamlet Gardens is perfect for individuals or couples seeking a blend of historical charm and contemporary comfort.,1,1,51.4946512,-0.2407673,W6,b3f6af05b34bd90e5745c7a6ff8daf67
"Kenmore Close, Kew, Surrey",2350,Spacious two double bedroom ground floor flat forming part of this attractive Georgian style development set around a residents' lawned square. EPC: D,2,1,51.4816686,-0.2845665,TW9,ddebf94dd394152e3a219f71ee815373
"Worple Road, Wimbledon, London",2650,"A spacious two bedroom first floor flat located on Worple Road, SW19. Available to rent is this spacious, first floor flat on Worple Road, situated in this excellent location offering easy access to the transport links of the District line tube and the mainline train station in Wimbledon town ce...",2,1,51.4154828,-0.218859,SW19,5d71cc372a66151d8da40f398f0774ce
Walton Street,2995,"•	Large Double Bedroom Flat •	Sunny Terrace •	Own Front Door •	Part Furnished Fantastic first floor maisonette, with own front door entrance from the street and no flat above or below in this wonderful street. Bright and well-proportioned rooms with a sunny balcony running the full length o...",1,1,51.4955643,-0.1657131,SW3,f72636fdecaa7a17ef1277470aecec62
"The Sessile, 18 Ashley Road, London,9NW",3495,"This thoughtfully designed, three bedroom furnished apartment with a balcony is located on the 6th floor of The Sessile, a cosmopolitan residence in the centre of Tottenham Hale.",3,2,51.59084259999999,-0.0618819,N17,7dba77c31e0705df9f8b635a264613a7
"1 Rathbone Market, Barking Road, London",2050,"2 bedroom modern apartment. You'll have a private balcony and access to communal gardens, whilst being conviniently located a 5min walk from Canning Town.",2,1,51.5166423,0.0109006,E16,70bab40227cfa6f95dd7f2f5986e167f
"Parsifal Road, West Hampstead, London",1647,"ALL BILLS INCLUDED EXCEPT COUNCIL TAX! RECENTLY REFURBISHED LUXURY STUDIO apartment in this beautiful conversion set moments walk to West End Lanes array of shops, restaurants and bars. West Hampstead Tube ( Jubilee Line ) and Thameslink are also within a short walk. This SPACIOUS APARTMENT has b...",0,1,51.5544574,-0.1933721,NW6 1UG,40ffeca3bf050b9b890c9554eecedeb0
"The Sessile, 18 Ashley Road, London,9NW",3695,"This thoughtfully designed, three bedroom furnished apartment with a balcony is located on the 7th floor of The Sessile, a cosmopolitan residence in the centre of Tottenham Hale.",3,2,51.59084259999999,-0.0618819,N17,ead50146ceca39eaa9fca6efe55f3d7a
"Chiswick Village, Chiswick, London",2500,"ZERO DEPOSIT AVAILABLE. LONG LET. This superb fully renovated 3 bedroom flat in a brilliant building boasts three well proportioned bedrooms, a wonderful private balcony and spacious reception room.",3,1,51.4879297,-0.2794147,W4,34f2810d2efd3814f4b5c611808264ed
"Molyneux Drive, Tooting",2000,"A two double bedroom apartment offered to the market in excellent condition. Comprising large reception room, two double bedrooms, modern kitchen and bathroom this property would make the ideal home for a couple or two professionals.",2,1,51.4301736,-0.1520261,SW17 6BA,bf3328d7e80fddf819c177bc3c37345d
Ashbourne Terrace. Wimbledon,2850,"Perfect For Sharers, 3 Double Bedroom Mid Terrace Cottage in The Centre of Wimbledon.",3,1,51.4192918,-0.2027961,SW19,e3c02db41b2a8caf7ac4183a1505630a
"Chelsea Creek, Chelsea Creek, London",3359,"SHORT LET. Situated within a newly built waterside development, this spacious studio flat features modern and stylish accommodation with 24-hour concierge.",0,1,51.4758762,-0.1859369,SW6,7dd3acb7333457ec56b6aaec1a9e71f9
"The Sessile, 18 Ashley Road, London,9NW",3645,"This thoughtfully designed, three bedroom unfurnished apartment with a balcony is located on the 4th floor of The Sessile, a cosmopolitan residence in the centre of Tottenham Hale.",3,2,51.59084259999999,-0.0618819,N17,3c564038fcafbe0a60a3fd750d51b09e
"UNCLE Deptford, Evelyn St,, London",3050,"Get 4 weeks rent free now! The three bedroom flats at UNCLE Deptford are perfect for larger families or sharers. This newly built flat features a modern kitchen, open large living area, and Architectural Digest-worthy designs.",3,2,51.4871735,-0.0363705,SE8,248082242fd693d1eda44621a6907fdf
"Park Road, London",6998,A newly refurbished three bedroom apartment located in a prestigious mansion building offering fabulous views over Regents Park. The apartment boasts a master bedroom with en suite dressing room and 6 piece bathroom suite along with a 12ft fitted kitchen and a double volume reception roo...,3,2,51.5804214,-0.1240854,N8 8TE,5b0137a2bfde1259eab95f0f0fecc699
"The Sessile, 18 Ashley Road, London,9NT",3750,"This thoughtfully designed, three bedroom unfurnished apartment with a balcony is located on the 3rd floor of The Sessile, a cosmopolitan residence in the centre of Tottenham Hale.",3,2,51.59084259999999,-0.0618819,N17,4921f0e7eff85225e6d1c6965ce1a006
"The Sessile, 18 Ashley Road, London,9NT",3645,"This thoughtfully designed, three bedroom furnished apartment with a balcony is located on the 9th floor of The Sessile, a cosmopolitan residence in the centre of Tottenham Hale.",3,2,51.59084259999999,-0.0618819,N17,3c564038fcafbe0a60a3fd750d51b09e
"UNCLE Deptford, Evelyn St,, London",2500,"Get 4 weeks rent free on selective units! UNCLE Deptford's two bedroom duplex apartments offer a perfect blend of style and functionality for individuals or couples. This brand-new flat boasts high-end finishes, a luxury bathroom, and cozy furniture.",2,2,51.4871735,-0.0363705,SE8,711f716885600c129fbfecfb8616fb8c
"UNCLE Deptford, Evelyn St,, London",2150,"Get 4 weeks rent free on selective units! UNCLE Deptford's one bedroom apartments offer a perfect blend of style and functionality for individuals or couples. This brand-new flat boasts high-end finishes, a luxury bathroom, and cozy furniture.",2,1,51.4871735,-0.0363705,SE8,0e25f8eb89e4afae97eb04037a57fc91
"New Wharf Road, Islington, London",3300,"Stunning two bedroom flat with access to the canal. Available now, unfurnished.",2,2,51.5340373,-0.1199176,N1,ad0c055cbfec5a5ec4cfe3d21af1b11e
"High Street, Teddington",1600,Attention Teddington lovers! You will not find another quite like this. Located in the heart of Teddington is this unique ground floor Maisonette with allocated parking. Whilst located on the high street the entrance is tucked away on Field Lane - Jessie Co-Owner. Greeted with a beauti...,1,0,51.4272428,-0.3302796,TW11,88158bb8c106987d6dcf7118a5d5a558
"Culverley Road, London",1750,"*AVAILABLE NOW / UPPER FLOOR / MODERN SPEC - BRAND NEW KITCHEN AND BATHROOM / ON-ROAD PARKING* This STUNNING 2-bedroom flat is perfect for a professional couple or small family looking for a modern, cozy new home. This property has been completely refurbed through-out to a beautiful st...",2,1,51.442328,-0.0153087,SE6,7e402f3af6eb21e6d248486c3024e85a
"Parsifal Road, West Hampstead, London",1647,LOVELY DOUBLE STUDIO APARTMENT WITHIN PERIOD CONVERSION BUILDING WITH ALL BILLS INCLUDED IN RENT (EXCLUDING COUNCIL TAX) AND OWN ENTRANCE- LOCATED JUST OFF WEST END LANE AND FINCHLEY ROAD! LUXURY STUDIO apartment in this beautiful conversion set moments walk to West End Lanes array of sh...,0,1,51.5544574,-0.1933721,NW6 1UG,40ffeca3bf050b9b890c9554eecedeb0
"Hill Street, Mayfair",3207,"A luxurious 1 bedroom apartment on the fifth floor of this beautiful red brick building, situated in the heart of London's fashionable Mayfair, neighbouring the famous Berkeley Square. The apartment is a short walk from the fashionable amenities of, Oxford Street as well as the green ...",1,1,51.5086937,-0.1484713,W1J,e0b7d32da23b60edd180b3ce766a55b3
Leathermarket Court London Bridge,2496,"A well presented two bedroom apartment located minutes from London Bridge, in popular and secure Leathermarket Court. Landlord will be re-carpeting throughout and turning the lounge back.",2,1,51.4999577,-0.08342139999999999,SE1,f5a734c4ead7fb94b7add90fc0fc079b
"Queen's Club Gardens, West Kensington",2250,"Queen's Club Gardens property features two generous sized double bedrooms with ample storage, separate lounge, modern bathroom and fully fitted kitchen. Residents can also enjoy use of communal tennis courts and gardens.",2,1,51.4860461,-0.2086546,W14 9TW,62b14afe28a34579ba8a65d8ce4c6f89
"Middleton Road, Dalston",2000,"Situated within this modern development on the cusp of Dalston and Haggerston, comes this stylish, one bedroom apartment with light and airy rooms, residential permit parking and access to a rear communal garden, close to Kingsland Road offering a host of shops bars, restaurants and transport links.",1,1,51.5404118,-0.0698869,E8 4BL,ee9e008ff2ca0ae6ef2119c472df4c49
Flat 2a George West House,2400,"base rent: £2400, deposit: £2769.23, number of bedrooms: 1, size: 506 sq ft, apartment type: lower ground, pet restrictions, please enquire, heating type: central, fully integrated kitchen, furnished, dishwasher, open plan kitchen, washer dryer, number o…",1,1,51.46337519999999,-0.1425563,SW4 0QL,559dc2baee81ebb2fa612bee2db63f62
"Albert Embankment, London",3999,"Discover the epitome of luxury living at The Dumont, a high-standard whole property located on 27 Albert Embankment that offers breathtaking views of London. This fully furnished property comes equipped with all the modern amenities.",2,0,51.4903219,-0.1226345,SE1,c19de0f6537af0ecb8f22c59423b4117
"Ewer Street, London",3100,"A modern, well maintained two bedrooms, two bathrooms, fifth floor apartment with a private balcony. The property stands at 830 sq ft. There is a modern open-plan reception room and kitchen with integrated appliances. The property is in the heart of Southwark and close dis...",2,2,51.5039538,-0.0999878,SE1,56fd76b07f9fc3f2ff7b3f6ac8463672
Coldharbour Lane,3250,Stunning three double bedroom flat located a stone's throw away from the heart of Brixton,3,1,51.4633745,-0.1066992,SW9,67d4fdc7d8bfbd374e7c53763b1f3685
"Gardnor Mansions, Church Row",8000,A beautiful 3 double bedroom raised ground floor apartment set in this smart prestigious period building in Hampstead.,3,2,51.5558596,-0.179536,NW3,c316fa9baa1e2f05861cce43c301f2e6
"Philbeach Gardens, Earls Court",2750,"The property comprises of two bedrooms with built in wardrobes, a fully fitted separate kitchen and access to the stunning communal gardens with its own tennis court.",2,2,51.4909517,-0.1999571,SW5,9af5d3aac4c5cb4aa87a255b5dba82d4
"Maldon Road, Acton Park",2500,Stunning two bedroom apartment located in Acton just a stones throw away from Acton Central Station. The property is exceptionally decorated and offers a large space throughout. Unfurnished and ready to move now.,2,1,51.5121513,-0.266765,W3,e3408c0b084f33ff9e5f63a561f4b524
"Azenby Road, London",1350,"Studio Flat with Park Views in Victorian BlockWe are letting a studio flat on the 2nd floor of a Victorian building (no lifts), perfect for someone seeking a functional living space with great vie... ** Property Reference: 2428800 **",0,1,51.4698437,-0.0772326,SE15,5bace84feaa8d97eaee4248804330bc7
"City Walk, Shoreditch, London",3012,"2 Bed Penthouse, City Walk, E2 We are proud to offer this delightful 2 bedroom, 1 bathroom penthouse in a great location. Available to move in from 17 May 2025, this property benefits from avail... ** Property Reference: 2371818 **",2,1,51.4990283,-0.0837196,E2,199a2417038d9a649ac6a667171b1976
"Christchurch Avenue, London",1842,A good sized one double bedroom apartment situated on the top floor.,1,1,51.5434507,-0.2104054,NW6,9c837cd2ebb9325f520243bd973563d1
"Dawes Road, London",2300,This MODERN two bedroom residency is beautifully arranged over two floors and offered fully furnished with modern fixtures and fittings throughout. Internally it consists of an OPEN-PLAN reception... ** Property Reference: 2421490 **,2,2,51.4807305,-0.2062152,SW6,11767e247c09c317889562a81f48ce60
Compayne Gardens London,3250,"This newly refurbished three bedroom property, compromising of three double bedrooms, large bright living room, separate kitchen with new appliances and spacious bathroom. The property has been finished with a high standard throughout and is located on a tree lined street in the heart of South Ha...",3,1,51.5450479,-0.1865469,NW6,48cc5f542a9615cb3a95fb6943534b91
"Russell Court, Bloomsbury",1950,"A bright and quiet corner studio apartment available for long let, on the 6th floor of this sought after WC1 mansion block, moments from Russell Square station and the Brunswick Centre.",0,1,51.5232541,-0.1260235,WC1H,22f9d3bf99779d9864102403178ed461
"Gladwin Tower, Nine Elms Point, 50 Wandsworth Road, London",2800,"Available late July! More than just a home. This new and very modern ONE BEDROOM apartment in the well sought after Gladwin Tower in Nine Elms Point is available at the end of July! With high specifications throughout, it will be your choice to have the flat offered fully ...",1,1,51.4814963,-0.1279898,SW8,d5152cbe6bb157d7043bf1b55d9edae4
"Principal Tower, Principal Place",4442,"Circa London is pleased to present this immaculate, dual-aspect apartment in Principal Tower. Located between London's financial district and the tech hub of Silicon Roundabout, this iconic residential building, designed by the renowned architects Foster + Partners, stands as one of the most stri...",2,2,51.5219726,-0.07923369999999999,EC2A,913ad42cb77e40df348282bb01f8cb7a
Sinclair Road,1650,"Bright and airy one bedroom flat located on a popular road, offering easy access to Kensington Olympia and Shepherds Bush tube. With high ceilings and neutral decor, the property offers a spacious reception room, separate modern kitchen and good storage.",1,1,51.5000773,-0.2139411,W14,f7fd8de09ab49b883e844bf0697c6089
"Prince Of Wales Terrace, Kensington, London",15816,An exquisite two-bedroom apartment featuring a spacious private terrace with spectacular views over Kensington. QUOTE REF AR0255,2,2,51.5014203,-0.1862694,W8,39f39db6393bd31ca171ecf632404cf5
"Strathmore Court, Park Road, St Johns Wood, London",8840,"A spacious four-bedroom apartment set over 2357 sq ft, located on the second floor of this prestigious mansion block, offering fabulous views over Regents Park. QUOTE REF AR0255",5,5,51.529622,-0.167885,NW8,ca66286f9f3c6140518061f8e8846d21
"Strathmore Court, Park Road, St Johns Wood, London",8796,"This stunning second-floor, six-bedroom, two-bathroom apartment, offers over 2553 sq ft of luxurious living space and fabulous views over Regent's Park. QUOTE REF AR0255",6,2,51.529622,-0.167885,NW8,6b81cc7d6e2e78a9f15b62bac3efdf17
"Florin Court, Clerkenwell",2015,"A well presented studio apartment available for immediate occupancy in this highly sought after and ideally situated grade II listed Art Deco building on Charterhouse Square, Smithfield, Clerkenwell.",0,1,51.5209533,-0.0985481,EC1M,f522ae02ba32c2459e37c4ed94ea5ed5
"Newham Way, LONDON",2200,**NO DEPOSIT OPTION AVAILABLE** 4 bedroom townhouse to rent!,4,2,51.5195008,0.0402407,E16 1QX,0321a604ebf0bdf04ac961d25f7fa6d0
"Merchant Square East, Paddington, London",7193,"A stunning interior-designed three-bedroom apartment with water views, set within the heart of the Paddington Basin and close to the popular West End Quay. QUOTE REF AR0255",3,2,51.5189256,-0.1730681,W2,0640bc6bc6ba29ccc6b8ea87669631c2
"Palace Wharf, Rainville Road, Fulham, London",8666,"A spectacular duplex interior designed three bedroom, three bathroom apartment with a private balcony and roof terrace, offering stunning views of the River Thames and set within this newly converted, warehouse style, gated development. QUOTE REF AR0255",3,3,51.48245379999999,-0.2235073,W6,796da6df6e86756e163a1e730663deba
"Garrett Mansions, Edgware Road, Paddington, London",4914,A luxurious interior designed one-bedroom 4th-floor apartment set over 543 sq ft comprising a large open-plan reception room leading onto a private balcony. QUOTE REF AR0255,1,1,51.521304,-0.1722519,W2,588212836517f58ff40690bd869632fd
"Abell House, 31 John Islip Street, Westminster, London",6500,"Beautiful 2 bedroom apartment with large private terrace and furnished to a very high standard. Abell House features pool, gym, sauna and 24/7 concierge.",2,2,51.4933698,-0.1277374,SW1P,92b039bb5bfae1662857baa708c2cfee
"Clanricarde Gardens, London",2200,"This wonderful one-bedroom flat is located on the ground floor of a period conversion on Clanricarde Gardens, a residential street adjacent to Hyde Park.",1,1,51.5104535,-0.193299,W2,4e89411150e4c9ca176f19d499ce8202
"Clare Court, Bloomsbury",2383,"A very well proportioned one double bedroom period apartment available for long let, ideally situated on the second floor of this highly sought after1930's portered block, on Judd Street central WC1.",1,1,51.52654339999999,-0.1234621,WC1H,4ad3b4533eeefc2a90509e67d6d61352
"Westmark Tower, London",5200,"Presenting a luxurious TWO BEDROOM apartment located in the upcoming Westmark Tower, W2. Set on the 15TH FLOOR, the property comprises a spacious OPEN PLAN living and kitchen area, one master bedroom with an en-suite, followed by another bedroom, second bathroom and PRIVATE BALCONY.",2,2,51.52078700000001,-0.17208,W2,3e0601e16bc2eb5304056fdb81ffc25a
"Wood Crescent, BBC Television Centre",3650,"A stunning two bedroom apartment situated within the award-winning BBC Television Centre development in White City. The apartment benefits from an open-plan living area, a contemporary kitchen design, two double bedrooms (one with an en-suite bathroom), a private balcony and a sleek family bathr...",2,2,51.5098238,-0.227274,W12,edd848c75c1fee12c291e3994e6be2b7
"Eccleston Square, London",2450,"A well located, large one bedroom lower ground floor, flat close to Victoria Station. Available from the beginning of March. OPEN TO PETS.",1,1,51.492252,-0.1445238,SW1V,81280ade578dd1f134dc88442e4fbf9e
"Loughborough Court, Shakespeare Rd, London",1875,Key features: - Communal Garden & BBQ - Co-working space & Resident Lounge - Onsite Community Curator - Exclusive discounts for Node Residents - Packages safely stored in lockers - Pet Friendly - Secured bicycle storage - Fully Equipped Kitche...,1,1,51.464116,-0.1025749,SE24,b68b85b514e8edf9e3a547703ac75aa8
"Coxwell Boulevard, Colindale",2400,"A well presented Two Double bedroom second floor apartment set within this modern purpose built block in this sought after Barratt Homes development on the borders of Mill Hill and Colindale, conveniently located approximately one mile from both Mill Hill Broadway Thameslink station and Colindale...",2,2,51.6039783,-0.2421234,NW9,5c63bc66136f382e758f14661d8416ce
"Masson House, Pump House Crescent, Brentford",2950,"A stunning two bedroom apartment in one of Brentford's premier developments, Kew Bridge West",2,2,51.4884755,-0.293828,TW8,3b91618318864e81e608a3aab6cd48e4
"Balfron Tower, 7 St Leonards Road, London,0UY",2280,"Located on the ground floor of Balfron Tower, this two bedroom apartment has well-proportioned rooms, underfloor heating and a private terrace with built-in planter and skyline views.",2,1,51.5136325,-0.0088074,E14,2fcade47c6c72d4b79615493ac115b97
Coldharbour Lane,2665,"A fantastic three double bedroom flat located in a secure mansion block in the heart of Brixton. This flat comprises of three lovely spacious double bedrooms, a beautifully designed open plan kitchen/living area with a stunning feature fireplace with exposed brickwork and a modern sleek family si...",3,1,51.4633745,-0.1066992,SW9,f623b21a09db3a813a02c732ce1a5468
"Bury Street, London",5525,"Perched on the fourth floor of a meticulously maintained building, with lift, this recently refurbished residence is the epitome of sophistication and comfort. Upon entering, you are greeted by a seamless blend of modern elegance and timeless charm.",2,1,51.5069109,-0.1385186,SW1Y,eb469b41dbb8bd5bfe01f607a32d9d3e
"Regents Park, London",1650,"ZONE 1 very nice 2 bed flat (2 lounges + 2 bathrooms + balcony + parking) 1-2 min walk to Regents Park - very nice, fully furnished 850 sq ft two bed flat (quiet bright top/2nd floor) with 2 loun... ** Property Reference: 2036209 **",1,2,51.52475430000001,-0.1608797,NW1,bca5d91ea7f74850f663be77e6ce012f
"Park Road, London",4312,"We are pleased to offer this 916 sq ft, second floor, 2 bedroom, 1 bathroom apartment set within a ported building opposite Regents Park. This apartment is ideally suited to young professionals or students due to its proximity to the West End, as well as a number of top colleges and universities ...",2,1,51.5804214,-0.1240854,N8 8TE,c7141f9d5f6aed83313a97a4b9b1a345
"Sherwood Street, London",5742,We are delighted to bring to the market this brand new one bedroom apartment to rent in this purpose built building in popular Soho.,1,2,51.5107993,-0.1356624,W1F,2fc83146443cbb9e0dce94935392dc68
"Wenham House, London",2300,"This recently refurbished, fully furnished 2-bedroom flat has been finished to an exceptional standard. Located just a 5-minute walk from the iconic Battersea Power Station, the property boasts two spacious double bedrooms, a separate reception room, a modern kitchen, and a stylish bathroom. Imma...",2,1,51.4782403,-0.1415386,SW8 4DZ,ea280abfdce1712d660c296bfb5b1daa
"Tremadoc Road, Clapham",2450,"A exceptional Victorian period conversion, set on the first floor with high ceilings throughout. This well-presented two bedroom property offers a reception room, a separate kitchen and storage space.",2,1,51.4628563,-0.131726,SW4 7NF,df73f24d177c7dc108c2c3485427ed36
"Westwood Building, Lockage Wood",4000,"Regent are proud to present this stunning two-bedroom apartment in the Westwood Building, Lockgate Road, SW6. The accommodation comprises two spacious bedrooms with built-in wardrobes, open open-plan kitchen/living area with access to the private balcony and two modern bath...",2,2,51.4766145,-0.1846161,SW6,aa4a19f703ac34d7cf99e6e894a5218b
"Hyde Park Square, Hyde Park",8498,"This well presented family home with beautiful views over Hyde Park Square is arranged over four floors consisting of four bedrooms, four bathrooms (all en-suite), reception room, dining room, kitchen, guest WC and a balcony. The house further offers a single garage forming part of the intern...",4,4,51.5139828,-0.1690013,W2,3c807b0996049cbac9f7ae4f42bfb31f
"Queens Road, London",1600,"Prestige Properties are pleased to offer to the market this top floor 1 bed apartment situated just moments away from Hendon Central Station & over looking Hendon Park. The property comprises of a double bedroom with fitted wardrobes, fully tiled bathroom with both bathtub & walk in sho...",1,1,51.5783128,-0.0241685,E17 8PY,9980679cab25fd53076d3cfe3eba1115
"North Road, Brentford",2150,"No Deposit Option Available For Tenants. A bright and spacious two double bedroom apartment located on the top floor of a modern building. Offering an open-plan reception room with access to a patio, modern kitchen featuring a breakfast bar and two good sized double bedrooms...",2,2,51.488527,-0.2973406,TW8,21b37abcd559bb2e3e8d7c02a827be99
"Newfoundland Place, London",4349,"Newfoundland is an eye catching addition to the Canary Wharf skyline, boasting 58 floors of luxury living and picturesque views. Offering an array of stylish Studio, 1 Bedroom, 2 Bedroom & 3 Bedroom Apartments, residents can enjoy high-quality living from spacious homes.",2,2,51.5042182,-0.0250777,E14,1fc96565a83dd6aeb9f84b82704eb31c
"The Ridgeway, London",1700,"newly decorated two-bedroom ground-floor flat is now available for immediate rental. Perfectly located within walking distance of Chingford Train Station and the High Road, this flat offers the ideal blend of comfort and convenience.",2,0,51.6287706,-0.0056225,E4,63a52961ff340e01924c6454fbace84d
"Yunus Khan Close, Walthamstow, London",1195,"A Bright, Modern and Recently Re-decorated Top-Floor Studio Flat This property is situated in a purpose-built development, offering a thoughtfully designed layout that maximizes both space and privacy. The property features a separate kitchen, complete with fitted appliances and ample storage...",0,1,51.5789011,-0.0196529,E17 8XB,90d74dcd341dd87ee837b9674a1eb16e
"Stapleton Hall Road, Stroud Green, London",2000,"Tatlers is delighted to offer this newly refurbished and stunning two double bedroom top floor period conversion apartment, located in the heart of Stroud Green and accessible to all High amenities and local transport including 210, W3 and W7 bus routes to Finsbury Park( Victoria Line) tube stati...",2,1,51.5746379,-0.1107594,N4,e5ac85c0b2fcb01b276d8dee78fe45fa
"Hornton Street, Kensington",3250,"A top floor two bedroom apartment located on the top floor of this striking period building. This bright and airy property boasts good volumes. Composed of one double bedroom, two bathrooms (both en-suite), fantastic reception room, separate kitchen.",2,2,51.5030541,-0.1950953,W8,4f2292c51668cfea51fc75c4ac21ac9f
Ennismore Avenue.,1950,"Top floor, two bedroom property with a separate kitchen. Located just off Chiswick High Road with both Turnham Green and Stamford Brook tubes a short walk away. Chiswick High Road is popular for its independent shops, bars and restaurants.",2,1,51.4937885,-0.2507702,W4,375312c46c09b8728475ded7846e238f
"Chiswick Village, Acton",2496,A first floor apartment set within the sought after Chiswick Village development. A private balcony is accessed via both the living room and master bedroom with two further double bedrooms and a separate kitchen completing the living accommodation. The development also benefits from a central gar...,3,1,51.4879297,-0.2794147,W4 3BY,fd26624b61bdd2dc29e72bc1d06c62a3
"Regency Court, South Woodford",1875,"A spacious, stylishly decorated, two bedroom, two bathroom, third floor apartment, handily sat next to the artisanal coffee shops, fine restaurants and friendly pubs on George Lane. The endless green expanse of Epping Forest is also nearby. South Woodford station is only a ten minute wal...",2,1,51.5951701,0.021617,E18 2JT,7b7eeb4835ba83e1ac491a67188d6808
"Upper Courtyard, 44 West Street, CARSHALTON",2200,"Silverman Black are pleased to offer to the rental market this charming clapperboard fronted three bedroom townhouse, located on a small & select private development. The property affords spacious and well-proportioned accommodation spread over three levels featuring a luxury fully integrated kit...",3,2,51.3669723,-0.1666779,SM5 2PR,ef9395fd96db54bcf06dab4320b0359c
Essex Road Islington,2750,*SHORT LET* A large One double bedroom apartment set on the first floor a secure modern development just moments from Angel and Upper Street.,1,1,51.540492,-0.0955599,N1,e9151cb39e140d0740d451e96ac2811d
"Hill Street, Mayfair, London",3727,A newly refurbished one bedroom apartment of 533 square feet.,1,1,51.5086937,-0.1484713,W1J,404c392b174073c3e900f6c849e8f5b2
"Transom Close, Surrey Quays",1600,"A modern and immaculately presented one double bedroom apartment overlooking the picturesque South Dock Marina in Surrey Quays. The property boast a naturally bright living room, a separate kitchen with plenty of storage space, the double bedroom, and a modern bathroom. The apartment has acce...",1,1,51.4929596,-0.0365663,SE16,e080d2fb50c7f5ea52566b3361389785
"Hill Street, Mayfair, London",3207,A newly refurbished one bedroom apartment of 440 square feet.,1,1,51.5086937,-0.1484713,W1J,e0b7d32da23b60edd180b3ce766a55b3
"Bunning Way, London",2700,"** ZERO DEPOSIT AVAILABLE ** AVAILABLE END OF APRIL 2025 ** Auckland Estates are pleased to offer this bright and spacious, two bedroom flat, located minutes away from Caledonian Road & Barnsbury over ground station. This ground floor flat consists of an open plan Kitchen living area, Two ...",2,1,51.5429436,-0.1198104,N7,6dc8f5a7ad39c99ebf35d60dd9f0057c
"Charlton Church Lane, Charlton, London",1950,"Lifestyle Property are delighted to offer for rent this spacious 3 bedroom flat located a short walk away from Charlton Railway Station. Split over two levels, the property consists of 3 spacious double bedrooms, separate kitchen and living area as well as a private garden. ***AVAILABLE 30th MARC...",3,0,51.4844444,0.0334846,SE7 7AG,60df13aab8024e7df4fda979110193f4
"Ensign House, Battersea Reach",2800,"Highly appealing 764ft² apartment with stylish furnishing, secure underground parking & balcony offering river views.",2,2,51.465056,-0.1834316,SW18 1TR,0fbf8fae55f148424ba795d7baa3f651
Garratt Lane Earlsfield London,2150,"Presenting to the market a two double bedroom apartment within this new gated development on Garratt Lane in Earlsfield. The property is located within a 5 minute walk to Earlsfield Mainline Station. Comprising two double bedrooms, both with access to a private balcony, a bathroom suite and an op...",2,1,51.442799,-0.1888084,SW18 4DX,607e3579e7ddf415d4cf20307f43b8b2
"Loughborough Court, Shakespeare Rd, London",1710,Key features: - Communal Garden & BBQ - Co-working space & Resident Lounge - Onsite Community Curator - Exclusive discounts for Node Residents - Packages safely stored in lockers - Pet Friendly - Secured bicycle storage - Fully Equipped Kitche...,1,1,51.464116,-0.1025749,SE24,29410b2f7d698e2a966728b7c5d3c757
"Osmington houseDorset Road,Oval, London",3727,"Students view and reserve Reiss-Samuels are delighted to offer this upper floor four double bedroom maisonette with two bathrooms in a very popular area. Located a short walk to Oval and Stockwell station offered furnished, call Reiss-Samuels today to arrange a viewing",4,2,51.4774466,-0.1182103,SW8,96d06ac6b279cbf47135185e350b180b
"Elmira Street, London",1775,"One Double Bedroom | One Bathroom | Moments Away from Lewisham DLR station | Floor to Ceiling Windows for Maximum Natural Light | Private Balcony | Local Restaurants, Bars and Grocery Stores | Regular Bus links to City, Greenwich and Canary Wharf",1,1,51.4631651,-0.0157505,SE13,70185c8d4c70d95f62b3522342f5ff9f
"George Street, London",4148,"10 George Street has redefined what renting in London should be: an uncompromising quality of service, flexible social spaces that form the heart of a close-knit community and a lifestyle built on a programme of exciting events.",2,2,51.5023211,-0.0127598,E14,204418dd1edb1d9952ba304dc1633a2d
"Wandle Road, Wandsworth Common, London",2500,"Good 2 double bedroom, 2-bathroom split-level, large light and bright flat. The top half of a Victorian terraced house in Wandle Road therefore ideal for Wandsworth Common and Tooting Bec and Balham.",2,2,51.4405217,-0.1674001,SW17,6bd7b7f2484c7445a89a84dc0e78c3e9
"New Caledonian Wharf, Rotherhithe",2300,"Generous two bedroom two bathroom apartment located in the most desirable riverside development in Rotherhithe: New Caledonian Wharf. The property boasts a spacious and naturally bright living room leading into the private balcony enjoying stunning London skyline views, a modern kitchen with ...",2,2,51.4974289,-0.0335839,SE16,86c6095143d0c614a7355098421c6542
"Richmond Road, Twickenham",1500,"A beautifully finished one bedroom apartment, situated moments from Marble Hill Park and within easy reach of Twickenham and St Margarets stations.",1,1,51.4548898,-0.3119611,TW1,64d7d9c592987b35433cff827482bc58
"Brent Street, London",1625,"Prestige Properties are pleased to offer to the market this second floor 1 bed flat located on Brent Street NW4.
The property has been finished to high standard and offer spacious double bedroom, large fitted wardrobes, double walk-in ensuite shower room, fully fitted open plan kitchen/living roo...",1,1,51.5801995,-0.209824,NW4 2PB,8e0d59b740e5b7e964297b0f095fb7b5
"The Chase, Clapham Town",1750,"A larger than average one bedroom ground floor flat situated on a sought after residential road near Clapham Common. The property benefits from secure off street parking and comprises a spacious reception room, separate kitchen and modern bathroom.",1,1,51.4644531,-0.1466759,SW4,84bffc29a86d960e1294bb9b14370c59
"Dalebury Road, London",1700,"Charming small one bedroom furnished flat with garden and garden office/storage/gym on Dalebury Road, excellent location and very close to Tooting Bec, Balham and Wandsworth Common for transport and all amenities.",1,1,51.4390303,-0.1654362,SW17,3745c91e7a9af14d48a0ac8b0a2fd730
"Pinder Road, Walthamstow, London",2600,"*AVAILABLE FOR A FAMILY OR 2 SHARERS* BRAND NEW three bedroom, two bathroom Town House located on the borders of Walthamstow Village. Be the first to live in this newly built three double bedroom house. The accommodation is spaciously spread over three floors and full of natural light. ...",3,2,51.5874234,-0.0058466,E17,21da38860a44141b2e07ea3c6ed42f74
"Grosvenor Road, Grosvenor Road",4897,"This three bedroom, three bathroom property is located in the highly desirable Pimlico and comprises of a spacious living area, separate kitchen, three bedrooms and three bathrooms. There is wooden flooring throughout and views of the Thames. There is a concierge and resident's gym in the buildin...",3,3,49.205031,-122.8342661,L15 0EY,4e778f36db5632a85e8a7c8cdefdf136
"Loughborough Court, Shakespeare Rd, London",1700,Key features: - Communal Garden & BBQ - Co-working space & Resident Lounge - Onsite Community Curator - Exclusive discounts for Node Residents - Packages safely stored in lockers - Pet Friendly - Secured bicycle storage - Fully Equipped Kitche...,1,1,51.464116,-0.1025749,SE24,dd5e4ad251b264addf6fa7e9ced255ee
"Berry Street, London",4000,A stunning two double bedroom apartment designed by prestigious architect David Chipperfield. The apartment has a spacious open plan living space with an abundance of natural sunlight. The apartment benefits from high ceilings throughout and there is plenty of built in storage. This property has ...,2,2,51.5234505,-0.1003176,EC1V,ac2bb3f48f3f873bf3d9910404da2da9
"Highbury Stadium Square, London",2145,"A bright, modern one bedroom apartment set within a secure development in Highbury Stadium Square, just minutes from Arsenal Station.",1,1,51.557356,-0.1032715,N5,3c28cf99a235a45d3c29eb14047b6da4
"Loughborough Court, Shakespeare Rd, London",1600,Key features: - Communal Garden & BBQ - Co-working space & Resident Lounge - Onsite Community Curator - Exclusive discounts for Node Residents - Packages safely stored in lockers - Pet Friendly - Secured bicycle storage - Fully Equipped Kitche...,1,1,51.464116,-0.1025749,SE24,1c81e1b654bd1af146a501c09bc9dd31
"Orde Hall Street, London",6600,"Huge, bright, nicely decorated, 4 double bed 3 shower/bath, fully furnished 1st/2nd floor flat available 1st Sept. Ideal for law firms/City LSE/UCL/Kings/Hult. Quiet street, double sized reception, huge kitchen. New central heating syste...",4,3,51.5215552,-0.1191127,WC1N,df6780b3f53d466b9079651f389f456b
"Radnor Terrace, West Kensington",3034,A tastefully presented luxury apartment set in a highly sought-after prestigious development in Kensington. The development is conveniently positioned within walking distance of Kensington Olympia (District Line) Underground and Overground station.,1,1,51.4957528,-0.2053284,W14,243368cb98e4acd7fb5f2de5d14800c4
Western Gateway,3033,"*** Please quote reference JC2309433 when contacting the office***2. Three bedroom three bathrooms apartments; looking for two female roommates, £350pw per person. For more details, please contact the office",3,3,51.5080941,0.0196766,E16,2490fb531cf46d1823f6b25952081455
Kings Avenue London,2000,"Finished to a high standard, this stunning two bedroom property is located in a well maintained, private Art Deco Building. Beautifully refurbished throughout.",2,1,51.453501,-0.1297924,SW4,baca3f338a20b13614cc2540bc509b6b
"Knaresborough Place, London ",2000,"Newly refurbished apartment between Gloucester Road and Earl’s Court. Very bright, it is set on the 5th/top floor with lift and presents a large reception/dining room with sofa bed, an open-plan kitchen, a double bedroom and a bathroom. The area is rich in amenities, shops and transport links.",1,1,51.4939569,-0.1908765,SW5 0TN,fa04d9ff3038987639f49ad172a1fe0f
"Somerford Way, Canada Water",2300,A well-kept two bedroom house with a spacious private garden in a residential area of Rotherhithe. The lower floor boasts a generous reception room with plenty of natural light and access to the private garden and a neat kitchen with plenty of storage space. The second floor features a tidy f...,2,1,51.4995647,-0.0380175,SE16,a933839ac4365182cb1073a45dd22f2b
"Forsyth Gardens, Kennington, London",3900,"Students only available from 21st August 2025 4 bedroom 2 bathroom Maisonette with a garden to the market, the property is offered furnished, set over 2 floors all bedrooms are doubles, a short walk to Kennington Tube Station. STC",4,2,51.4839683,-0.1023114,SE17,eada9b53c9ed4ce3072821498411efd3
"Radnor Terrace, West Kensington",3034,A stunning 2nd floor luxury apartment situated in one of London's most opulent developments in the heart of Kensington. The property is located nearby Kensington Olympia (District Line) underground and Overground stations which have excellent services around London.,1,1,51.4957528,-0.2053284,W14,243368cb98e4acd7fb5f2de5d14800c4
"Redcross Way, London Bridge",2747,"A highly attractive, over 700 sq ft flat, with fantastic views of the Shard and the skyline, a spacious open plan living room and kitchen, with ample room for dining, two generous double bedrooms and a family bathroom.",2,1,51.5037101,-0.0937472,SE1,1a6e30bbe4837bf1ce9dc87c1bcda038
"Green Lane, London",4500,"A substantial seven bedroom detached house located in this sought after road close off Brent Street, and all amenities in Hendon Central. The property has a lovely kosher kitchen with granite work tops open to dining room, through lounge with access to rear garden, downstairs study/office, en-sui...",7,3,51.5904256,-0.1032137,N16 9PX,1b882ec9e4f7c1b8d01356dac367d3fc
"Fulham Palace Road, London",3350,"This charming ground-floor apartment offers an exquisite blend of period features and modern comfort, set in the sought-after Bishops Park area of Fulham. The property comprises two generous double bedrooms, a good size bathroom, and a spacious, light-filled reception room adorned with original p...",2,1,51.4805992,-0.2178135,SW6,ea2f5e9211e15bf9ec295d7718235650
"Patmos Road, Vauxhall",2496,No summary available.,2,2,51.4763316,-0.1054096,SW9 6SQ,d95a28aec0d5f506c5b0c1ef06a0db30
"Tankerville Road, London,5LL",1450,"***PLEASE QUOTE LT0751 FOR ALL ENQUIRIES***
Elegant 1-Bedroom Flat on Prestigious Tankerville Road, SW16
Discover this charming 1-bedroom flat situated on the highly sought-after Tankerville Road in SW16. Arranged over 336sqft, combining contempo...",1,1,51.4174008,-0.1320286,SW16,90cf1d61b3263617759ade9521ac5ecf
"Pages Lane, London",1800,"A two bedroom apartment with off-street parking in a gated private development. The property benefits by having it's own private entrance, modern kitchen and access to communal gardens.",2,1,51.5945554,-0.147448,N10 1PU,efb48516758042edd729d2c9b0689af9
"Leyton Green Road, Leyton",1650,ONE BEDROOM MODERN DEVELOPMENT – NO DEPOSIT OPTION AVAILABLE,1,1,51.5752821,-0.0081974,E10 6BA,26ad0013c3532d5366b13ff3396a281f
"New North Road, Hoxton, London",3200,"*Alternative Deposit Option Available* This three-bedroom duplex apartment is set over the ground and first floors of this purpose-built block in Hoxton. There is a private entrance with patio, the reception room, which has generous space for lounge seating and room for dining fo...",3,1,51.5328644,-0.0873007,N1,8d64fd9cc86c52074b7fe08aa1ca93f9
Massingberd Way London,1650,"We are pleased to market this well-presented, modern apartment within the popular Heritage Park Development. Boasting one double bedroom, spacious reception room and off street parking.",1,1,51.4293313,-0.1515794,SW17,915c3d80b07321baa21edc94d224e58c
"Hill Street, Mayfair, London",3207,A newly refurbished one bedroom apartment of approximately 427 square feet.,1,1,51.5086937,-0.1484713,W1J,e0b7d32da23b60edd180b3ce766a55b3
"Water Street, London",4100,"Welcome to Canary Wharf's first pet-friendly address. Focused on wellbeing, 8 Water Street nurtures a healthy outdoor lifestyle with a low-rise character making it feel intimately connected to water, boardwalks and gardens below.",2,2,51.5028723,-0.0144318,E14,4adb568b2ab74b51ca4754a4ae1a7696
"Bloxhall Road, Leyton",1650,Available mid- April is this highly desirably two bedroom ground floor flat with private garden within easy walking distance to Lea Bridge train station. This property comes unfurnished and best suited for a single tenant or a couple wanting an extra room for home office,2,0,51.5671917,-0.0301907,E10,2c6f6c2aea7866c391f074d3237366c7
"Acton Lane, Chiswick",2297,"A split-level conversion apartment in central Chiswick that has been fully refurbished and offers a contemporary kitchen/breakfast room, a large reception with bay window, period features throughout and two double bedrooms.",2,1,51.4978659,-0.2654253,W4 5NE,aa27d31581ebec8709bd13ee181c307d
"Chiswick Village, Chiswick",1998,"This two bedroom apartment within the sought-after Chiswick Village development has just been refurbished throughout and offers a modern kitchen and bathroom, and access to communal gardens.",2,1,51.4879297,-0.2794147,W4 3BY,0400819ab14abe235bae2da22cff79be
Gorringe Park Avenue Mitcham,1550,"Located minutes away from Tooting Rail is this spacious ground floor garden flat. Comprising of one double bedroom, separate reception room, galley style kitchen and a large private garden.",1,1,51.4169857,-0.1593509,CR4,5ca5ba169cf3b3b58a32bd5cc17274cb
"Kew Bridge Road, Brentford",5997,"A beautifully presented three double bedroom duplex apartment, situated in this popular luxury development overlooking Kew Bridge. This apartment offers a modern kitchen, open-plan reception room with wood flooring and access to the terrace. There is also a modern family bathroom and three double...",3,3,51.4886951,-0.2891495,TW8,13d48f3215a2554751ef98865a8b4e46
Thurleigh Road London,2500,"Maalems are delighted to present this beautifully refurbished and elegantly spacious ground-floor period conversion, available immediately. Ideally situated just off leafy Bolingbroke Grove, this stunning home is only a short stroll from Wandsworth Common train station and the park. The ...",2,1,51.4520392,-0.158315,SW12 8UB,1ffc55ea3c6ce7c0a70538d48568ad8b
"UNCLE Elephant & Castle, 9 Churchyard Row",3320,This two bedroom apartment at UNCLE Elephant & Castle is the perfect for small families or professionals seeking extra space and luxury in the heart of London.,2,1,51.4925435,-0.102503,SE11,909e1f99844115b0f7b6cc143a449373
"Battersea, Wandsworth",1800,"Spacious flat, walking distance from Wandsworth Town and Clapham Junction Rail Stations",2,1,51.4721914,-0.1653343,SW11 3RZ,ebf4231d3448e6e0a86dd3bdb558307c
"UNCLE Elephant & Castle, 9 Churchyard Row",2600,This one bedroom apartment at UNCLE Elephant & Castle is the perfect for small families or professionals seeking extra space and luxury in the heart of London.,1,1,51.4925435,-0.102503,SE11,cc506321d8917135df37314a4e74be69
"Godwin House, One Tower Bridge, London",2947,"A stunning one bedroom apartment within one of London's most prestigious developments and location 'One Tower Bridge' As the name suggests, this development is located on Tower Bridge and offers so many restaurants, bars & transport facilities you will be spoilt for choice! This...",1,1,51.5036222,-0.0771192,SE1 2RA,b76d600f6a8f44a52a0620246320152d
"UNCLE Elephant & Castle, 9 Churchyard Row",2650,This one bedroom apartment at UNCLE Elephant & Castle is the perfect for small families or professionals seeking extra space and luxury in the heart of London.,1,1,51.4925435,-0.102503,SE11,393e29dc7e4643e453cf00ae187b6047
"Effra Parade, LONDON",1500,"**Zero Deposit Available**
This bright apartment comprises 1 double bedroom, 1 bathroom and a large reception room with fully equipped kitchen. Effra Parade is ideally situated within easy reach of the many amenities of both Brixton and Herne Hill with the green open spaces of Brockwell Pa...",1,0,51.4567625,-0.1094128,SW2 1PS,ef7340b882fac7bb3fde29614f4071d8
"Fellows Road, Swiss Cottage",2058,"Nestled in the heart of Fellows Road, this top-floor 1-bedroom flat offers a distinctive living experience in a highly sought-after location. The residence welcomes you with a comfortable and timeless ambiance, showcasing a unique blend of classic charm and practicality.",1,1,51.5441676,-0.1659483,NW3,5dc13857a0e1d2c04dcd5131c27a0cc5
"West End Lane, West Hampstead",1842,"This 1 bedroom duplex flat on West End Lane in West Hampstead is perfect for a single person or couple looking for a comfortable and stylish home. The flat is split over two floors, with the kitchen and living room located on the first floor and the bedroom and bathroom on the second floor.",1,1,51.5471648,-0.1910827,NW6,6a721c99f3ba19ec0d95418eac9a5d18
"Abbey Road, St John's Wood",1499,"A bright studio apartment on the fifth floor (with lift) of a purpose built block close to St Johns Wood Underground station. Studio room with balcony, separate kitchen and bathroom with shower over bath. Communal hot water included within the rent.",0,1,51.5354274,-0.1812017,NW8 9AY,ff247f5c3e41abb85538d88054b1e35d
"UNCLE Colindale, Ashbrook House, 2, Sanday Drive",2850,Get 4 weeks rent free now if you move in by end of March! *Select units only* A bright three bedroom apartment that’s only 22 minutes to King’s Cross with all the specs and amenities you can think of. This spacious and smartly designed flat at UNCLE Colindale is ideal for t...,3,2,51.5958836,-0.2470422,NW9,cb59863fd3237ebe0f477b304a885d08
"UNCLE Colindale, Astral House, 5, Aerial Square",2312,Get 4 weeks rent free now if you move in by end of March! *Select units only* A bright two bedroom apartment that’s only 22 minutes to King’s Cross with all the specs and amenities you can think of. This spacious and smartly designed flat at UNCLE Colindale is ideal for tho...,2,2,51.5952504,-0.2478083,NW9,b8d28f4b5aa7d15e1c1da3a5f293a878
"Empire Heights,, London",1850,This one bedroom apartment at Empire Heights is perfectly suited for individuals or couples looking for a spacious and bright home located in a stunning part of London.,1,1,51.47732329999999,-0.05013570000000001,SE14,8752d899170678888389138be8c7be35
"Iris House, Poplar Riverside, London",2500,"Two-bedroom apartment located in Poplar Riverside. With stunning views of the surrounding area, this modern space offers the perfect blend of comfort and convenience. The open-concept living area is flooded with natural light, creating a warm and inviting atmosphere. The well-appointed kitchen fe...",2,2,51.51567989999999,-0.0033125,E14,9fe5a23eb2461d204e00c662490767b2
Lancaster Gate,7302,A two bedroom/two bathroom property in this well-maintained period house. Situated close to Hyde Park and the transport links of Paddington.,2,2,51.5115793,-0.180241,W2,a76c9a2c13f351b94109719b39ad363c
"Lancaster Gate, Hyde Park",7500,A lovely spacious two bedroom period conversion apartment situated in a highly desirable location moments from Hyde Park.,2,2,51.5115793,-0.180241,W2,15f54c051ecd1394b15cb2c1a266ddda
"Heron Court, Lancaster Gate",2660,"A superbly located two bedroom apartment benefiting from excellent natural light, a close proximity to Hyde Park, a modern finish, and great views.",2,1,51.5115247,-0.1818382,W2,cb7b77907121464cfd5c115c562d2f3a
"Blackburn Road, West Hampstead",1798,"This charming 1-bedroom flat is situated on Blackburn Road, in the vibrant neighborhood of West Hampstead. The property offers a comfortable and stylish living space, ideal for individuals or couples seeking a cozy home in a sought-after location.",1,1,51.5471592,-0.1898288,NW6,8e64f2b6f82ec60314704e36fe42f8ae
"Oslo Tower, Greenland Place",2300,"Immaculate, corner unit, two double bedroom, two bathroom apartment available in the popular Greenland Place development. This modern, exceptionally bright, high spec apartment benefits from a secure allocated parking space, 24hr concierge facilities, a communal garden area and an on-site residen...",2,2,51.4909665,-0.0390064,SE8,7d9f41f3a6d85785cb7c31b43aa24fb8
"Centurion Tower, Caxton Street North, London",1900,"Discover contemporary city living in this stylish one-bedroom apartment at Centurion Tower. With modern interiors, excellent amenities, and fantastic transport links, this home is perfect for professionals or couples looking for comfort and convenience in a prime London location.",0,0,51.510988,0.012221,E16,c2c6ec2b996973b747c5c1801816ac02
"UNCLE Colindale, Appleby House, 4, Sanday Drive",1967,Get 4 weeks rent free now if you move in by end of March! *Select units only* A stunning one bedroom apartment that’s only 22 minutes to King’s Cross with all the specs and amenities you can think of. This spacious and smartly designed flat at UNCLE Colindale is ideal for t...,1,1,51.5954872,-0.2474412,NW9,87f543d6ff3df9fcee4549dd1ed154ef
"Larch Road, Cricklewood",2250,Attractive and well-presented two bedroom apartment - Own private entrance and a dedicated section of the rear garden - Modern fitted kitchen and bathroom - Wood flooring - Spacious reception room - 2 good sized bedrooms (one generous double and one smaller double) - Doubl...,2,1,51.5576562,-0.219779,NW2,41127b3115b0c6ab2d38a7c35124a855
"Treen Avenue, LONDON",1900,"A charming one-bedroom apartment in Barnes, featuring a private garden. The property offers a bright living area, fully equipped kitchen, and a well-proportioned double bedroom. The private garden provides a peaceful outdoor space, perfect for relaxation. Conveniently located near local shops, an...",1,1,51.4667243,-0.2515964,SW13 0JR,a1cca2842b8b880e5f3a13c67ef5f93f
"Woodfield Road, Ealing",2249,A modern two double bedroom apartment in this popular development close to Pitshanger Village. Within a short distance of the tube and train services at Ealing Broadway.,2,1,51.5248299,-0.3086405,W5 1SL,65548ca53b46825de59bd2299aeb5f42
"Cleve Road, South Hampstead",1798,"As sole agents, we are delighted to offer a selection of recently refurbished flats located on Cleve Road, one of the areas prime roads.",1,1,51.5441899,-0.1909479,NW6,0441a74110554ad5d8f04126db2d8404
